{
  "prefecture": "青森県",
  "romaji": "aomori",
  "count": 22,
  "curatedCount": 22,
  "manualCount": 0,
  "spots": [
    {
      "spotId": null,
      "name": "奥入瀬渓流",
      "lat": 40.574571,
      "lng": 140.978708,
      "address": "青森県十和田市奥瀬栃久保",
      "imageURL": null,
      "source": "curated"
    },
    {
      "spotId": null,
      "name": "階段国道339号",
      "lat": 41.259096,
      "lng": 140.344879,
      "address": "青森県東津軽郡外ヶ浜町三厩龍浜",
      "imageURL": null,
      "source": "curated"
    },
    {
      "spotId": null,
      "name": "岩木山スカイライン",
      "lat": 40.65374,
      "lng": 140.293111,
      "address": "青森県弘前市百沢岳山",
      "imageURL": null,
      "source": "curated"
    },
    {
      "spotId": null,
      "name": "恐山",
      "lat": 41.327196,
      "lng": 141.090678,
      "address": "青森県 むつ市",
      "imageURL": null,
      "source": "curated"
    },
    {
      "spotId": null,
      "name": "弘前城",
      "lat": 40.607929,
      "lng": 140.463661,
      "address": "青森県 弘前市",
      "imageURL": null,
      "source": "curated"
    },
    {
      "spotId": null,
      "name": "弘前城（弘前公園）",
      "lat": 40.607929,
      "lng": 140.463661,
      "address": "青森県弘前市下白銀町1",
      "imageURL": null,
      "source": "curated"
    },
    {
      "spotId": null,
      "name": "三内丸山遺跡",
      "lat": 40.811001,
      "lng": 140.697562,
      "address": "青森県青森市三内丸山305",
      "imageURL": null,
      "source": "curated"
    },
    {
      "spotId": null,
      "name": "種差海岸",
      "lat": 40.508709,
      "lng": 141.60833,
      "address": "青森県 八戸市",
      "imageURL": null,
      "source": "curated"
    },
    {
      "spotId": null,
      "name": "十和田湖",
      "lat": 40.408742,
      "lng": 140.86436,
      "address": "青森県 十和田市",
      "imageURL": null,
      "source": "curated"
    },
    {
      "spotId": null,
      "name": "青荷温泉",
      "lat": 40.571318,
      "lng": 140.729461,
      "address": "青森県南津軽郡田舎館村",
      "imageURL": null,
      "source": "curated"
    },
    {
      "spotId": null,
      "name": "浅虫温泉",
      "lat": 40.888394,
      "lng": 140.863518,
      "address": "青森県青森市浅虫坂本",
      "imageURL": null,
      "source": "curated"
    },
    {
      "spotId": null,
      "name": "大間崎",
      "lat": 41.546489,
      "lng": 140.912966,
      "address": "青森県下北郡大間町大間",
      "imageURL": null,
      "source": "curated"
    },
    {
      "spotId": null,
      "name": "道の駅 いなかだて",
      "lat": 40.633715,
      "lng": 140.578176,
      "address": "青森県南津軽郡田舎館村大字田舎館字中辻82",
      "imageURL": null,
      "source": "curated"
    },
    {
      "spotId": null,
      "name": "道の駅 はしかみ",
      "lat": 40.458304,
      "lng": 141.607811,
      "address": "青森県三戸郡階上町大字道仏字三ツ家21-62",
      "imageURL": null,
      "source": "curated"
    },
    {
      "spotId": null,
      "name": "道の駅 奥入瀬ろまんパーク",
      "lat": 40.585506,
      "lng": 141.117861,
      "address": "青森県十和田市大字奥瀬字堰道39-1",
      "imageURL": null,
      "source": "curated"
    },
    {
      "spotId": null,
      "name": "白神山地",
      "lat": 40.522379,
      "lng": 140.176663,
      "address": "青森県西津軽郡西目屋村大字川原平",
      "imageURL": null,
      "source": "curated"
    },
    {
      "spotId": null,
      "name": "八戸市蕪嶋神社",
      "lat": 40.538633,
      "lng": 141.557623,
      "address": "青森県八戸市鮫町鮫56-2",
      "imageURL": null,
      "source": "curated"
    },
    {
      "spotId": null,
      "name": "八甲田ロープウェー",
      "lat": 40.680833,
      "lng": 140.83168,
      "address": "青森県 青森市",
      "imageURL": null,
      "source": "curated"
    },
    {
      "spotId": null,
      "name": "八甲田山 酸ヶ湯温泉",
      "lat": 40.650607,
      "lng": 140.850486,
      "address": "青森県青森市荒川南荒川山国有林小字酸湯沢",
      "imageURL": null,
      "source": "curated"
    },
    {
      "spotId": null,
      "name": "八甲田山 田代平湿原",
      "lat": 40.694836,
      "lng": 140.919434,
      "address": "青森県青森市荒川南荒川山",
      "imageURL": null,
      "source": "curated"
    },
    {
      "spotId": null,
      "name": "仏ヶ浦",
      "lat": 41.311399,
      "lng": 140.804206,
      "address": "青森県下北郡佐井村長後",
      "imageURL": null,
      "source": "curated"
    },
    {
      "spotId": null,
      "name": "龍飛崎（龍飛岬）",
      "lat": 41.258389,
      "lng": 140.342514,
      "address": "青森県東津軽郡外ヶ浜町三厩龍浜",
      "imageURL": null,
      "source": "curated"
    }
  ]
}
