{
  "prefecture": "青森県",
  "romaji": "aomori",
  "count": 22,
  "curatedCount": 5,
  "manualCount": 0,
  "spots": [
    {
      "name": "弘前城",
      "lat": 40.607929,
      "lng": 140.463661,
      "address": "青森県 弘前市",
      "source": "curated"
    },
    {
      "name": "八甲田ロープウェー",
      "lat": 40.678382,
      "lng": 140.845338,
      "address": "青森県 青森市",
      "source": "curated"
    },
    {
      "name": "十和田湖",
      "lat": 40.458655,
      "lng": 140.87113,
      "address": "青森県 十和田市",
      "source": "curated"
    },
    {
      "name": "恐山",
      "lat": 41.316949,
      "lng": 141.087676,
      "address": "青森県 むつ市",
      "source": "curated"
    },
    {
      "name": "種差海岸",
      "lat": 40.50705,
      "lng": 141.607264,
      "address": "青森県 八戸市",
      "source": "curated"
    },
    {
      "name": "奥入瀬渓流",
      "lat": 40.4594,
      "lng": 140.9588,
      "address": "青森県十和田市奥瀬栃久保",
      "source": "recommend",
      "category": "湖・川",
      "description": "十和田湖から流れ出る渓流。約14kmにわたって続く滝と苔むした岩、ブナの原生林が織りなす景観は日本有数の渓谷美で秋の紅葉が特に有名。",
      "tags": [
        "絶景",
        "紅葉",
        "自然"
      ]
    },
    {
      "name": "龍飛崎（龍飛岬）",
      "lat": 41.2545,
      "lng": 140.3588,
      "address": "青森県東津軽郡外ヶ浜町三厩龍浜",
      "source": "recommend",
      "category": "海岸・岬",
      "description": "津軽半島最北端の岬。強風で有名で、石川さゆりの「津軽海峡冬景色」の歌碑がある。北海道・松前半島を望む眺望と階段国道339号も必見。",
      "tags": [
        "絶景",
        "海岸線",
        "文化"
      ]
    },
    {
      "name": "八甲田山 酸ヶ湯温泉",
      "lat": 40.6543,
      "lng": 140.8824,
      "address": "青森県青森市荒川南荒川山国有林小字酸湯沢",
      "source": "recommend",
      "category": "温泉",
      "description": "八甲田山中腹にある国民温泉保養地第1号。ヒバ千人風呂として知られる大型混浴浴槽が有名で、青森市内から八甲田ツーリングの帰りに立ち寄れる名湯。",
      "tags": [
        "温泉",
        "自然",
        "雪景色"
      ]
    },
    {
      "name": "大間崎",
      "lat": 41.5513,
      "lng": 140.9086,
      "address": "青森県下北郡大間町大間",
      "source": "recommend",
      "category": "海岸・岬",
      "description": "本州最北端の地。本州から函館・恵山岬まで17.5kmと最も近く、マグロ一本釣りの地として名高い。海峡を渡るフェリーとの組み合わせも人気。",
      "tags": [
        "絶景",
        "海岸線",
        "グルメ"
      ]
    },
    {
      "name": "弘前城（弘前公園）",
      "lat": 40.6072,
      "lng": 140.4646,
      "address": "青森県弘前市下白銀町1",
      "source": "recommend",
      "category": "文化・歴史",
      "description": "東北最大の桜の名所。現存12天守の一つである弘前城を背景に約2600本の桜が咲き誇り、岩木山との共演は日本最高峰の桜風景とも称される。",
      "tags": [
        "桜",
        "文化",
        "歴史"
      ]
    },
    {
      "name": "岩木山スカイライン",
      "lat": 40.6206,
      "lng": 140.3074,
      "address": "青森県弘前市百沢岳山",
      "source": "recommend",
      "category": "峠・山岳",
      "description": "「津軽富士」と呼ばれる岩木山の8合目まで達する有料道路。山頂部の展望からは津軽平野・日本海・北海道を望む360度パノラマが広がる。",
      "tags": [
        "絶景",
        "峠",
        "紅葉"
      ]
    },
    {
      "name": "青荷温泉",
      "lat": 40.4687,
      "lng": 140.5302,
      "address": "青森県南津軽郡田舎館村",
      "source": "recommend",
      "category": "温泉",
      "description": "電気・テレビなし「ランプの宿」として有名な秘湯。和市渓谷の渓流沿いに湯小屋が点在し、電灯のないランプの灯りで過ごす非日常体験が魅力。",
      "tags": [
        "温泉",
        "秘湯"
      ]
    },
    {
      "name": "仏ヶ浦",
      "lat": 41.3658,
      "lng": 140.8697,
      "address": "青森県下北郡佐井村長後",
      "source": "recommend",
      "category": "展望台・景勝地",
      "description": "下北半島西岸に連なる白緑色の奇岩群。高さ100mに及ぶ凝灰岩が海から突き出た景観は「仏の世界」と称され、国の名勝・天然記念物に指定。",
      "tags": [
        "絶景",
        "海岸線",
        "自然"
      ]
    },
    {
      "name": "道の駅 いなかだて",
      "lat": 40.5587,
      "lng": 140.5604,
      "address": "青森県南津軽郡田舎館村大字田舎館字中辻82",
      "source": "recommend",
      "category": "道の駅",
      "description": "田んぼアートの発祥地として世界的に有名な道の駅。色の異なる稲で描かれた巨大な田んぼアートは毎年5月〜10月に見られるツーリングの立ち寄りスポット。",
      "tags": [
        "道の駅",
        "文化"
      ]
    },
    {
      "name": "三内丸山遺跡",
      "lat": 40.6977,
      "lng": 140.6959,
      "address": "青森県青森市三内丸山305",
      "source": "recommend",
      "category": "文化・歴史",
      "description": "約5500年前の縄文時代の大規模集落跡。世界文化遺産にも登録されており、復元された六本柱建物と広大な遺跡は歴史好きのライダーに人気。",
      "tags": [
        "世界遺産",
        "文化",
        "歴史"
      ]
    },
    {
      "name": "白神山地 暗門の滝",
      "lat": 40.4473,
      "lng": 140.1266,
      "address": "青森県西津軽郡西目屋村大字川原平",
      "source": "recommend",
      "category": "峠・山岳",
      "description": "世界自然遺産・白神山地のブナ原生林の中に落ちる三段の滝。渓谷歩きで到達する秘境感と手つかずの自然は白神山地ツーリングのハイライト。",
      "tags": [
        "世界遺産",
        "自然",
        "絶景"
      ]
    },
    {
      "name": "階段国道339号",
      "lat": 41.2532,
      "lng": 140.3601,
      "address": "青森県東津軽郡外ヶ浜町三厩龍浜",
      "source": "recommend",
      "category": "文化・歴史",
      "description": "龍飛崎にある全国唯一の「歩行者専用国道」。362段の石段が国道に指定されており、津軽海峡を見渡せる展望と珍スポットとしての話題性が高い。",
      "tags": [
        "絶景",
        "文化",
        "海岸線"
      ]
    },
    {
      "name": "道の駅 はしかみ",
      "lat": 40.4556,
      "lng": 141.617,
      "address": "青森県三戸郡階上町大字道仏字三ツ家21-62",
      "source": "recommend",
      "category": "道の駅",
      "description": "三陸海岸の入口に位置し、太平洋を望む立地の道の駅。新鮮な海産物直売と「はしかみスタミナホルモン」などご当地グルメが充実したライダーの人気スポット。",
      "tags": [
        "道の駅",
        "グルメ",
        "海岸線"
      ]
    },
    {
      "name": "八戸市蕪嶋神社",
      "lat": 40.5887,
      "lng": 141.5489,
      "address": "青森県八戸市鮫町鮫56-2",
      "source": "recommend",
      "category": "文化・歴史",
      "description": "ウミネコの繁殖地として有名な小島に建つ神社。繁殖期の春から夏にかけて数万羽のウミネコが飛び交う景観は圧巻で、八戸のツーリング観光の定番。",
      "tags": [
        "文化",
        "海岸線",
        "自然"
      ]
    },
    {
      "name": "八甲田山 田代平湿原",
      "lat": 40.6279,
      "lng": 140.9446,
      "address": "青森県青森市荒川南荒川山",
      "source": "recommend",
      "category": "峠・山岳",
      "description": "八甲田山東部に広がる高層湿原。360度に広がる湿原の景観と八甲田連峰の山並みを望む開放的な景色は、ツーリングの途中に立ち寄れる隠れた名所。",
      "tags": [
        "自然",
        "絶景",
        "紅葉"
      ]
    },
    {
      "name": "浅虫温泉",
      "lat": 40.8438,
      "lng": 140.8786,
      "address": "青森県青森市浅虫坂本",
      "source": "recommend",
      "category": "温泉",
      "description": "陸奥湾に面した温泉地。「青森の奥座敷」と呼ばれ、湯の島が浮かぶ穏やかな湾の景色を楽しみながら入浴できる海望の湯が人気。",
      "tags": [
        "温泉",
        "海岸線"
      ]
    },
    {
      "name": "道の駅 奥入瀬ろまんパーク",
      "lat": 40.5461,
      "lng": 141.1354,
      "address": "青森県十和田市大字奥瀬字堰道39-1",
      "source": "recommend",
      "category": "道の駅",
      "description": "奥入瀬渓流・十和田湖ツーリングの拠点となる道の駅。地元農産物の直売や十和田バラ焼きなどのグルメが楽しめ、奥入瀬散策の足がかりにも最適。",
      "tags": [
        "道の駅",
        "グルメ"
      ]
    }
  ],
  "recommendCount": 17
}