{
  "prefecture": "青森県",
  "romaji": "aomori",
  "count": 5,
  "curatedCount": 5,
  "manualCount": 0,
  "spots": [
    {
      "spotId": null,
      "name": "恐山",
      "lat": 41.316949,
      "lng": 141.087676,
      "address": "青森県 むつ市",
      "imageURL": null,
      "source": "curated"
    },
    {
      "spotId": null,
      "name": "弘前城",
      "lat": 40.607929,
      "lng": 140.463661,
      "address": "青森県 弘前市",
      "imageURL": null,
      "source": "curated"
    },
    {
      "spotId": null,
      "name": "種差海岸",
      "lat": 40.50705,
      "lng": 141.607264,
      "address": "青森県 八戸市",
      "imageURL": null,
      "source": "curated"
    },
    {
      "spotId": null,
      "name": "十和田湖",
      "lat": 40.458655,
      "lng": 140.87113,
      "address": "青森県 十和田市",
      "imageURL": null,
      "source": "curated"
    },
    {
      "spotId": null,
      "name": "八甲田ロープウェー",
      "lat": 40.678382,
      "lng": 140.845338,
      "address": "青森県 青森市",
      "imageURL": null,
      "source": "curated"
    }
  ]
}
