{
  "prefecture": "群馬県",
  "romaji": "gunma",
  "count": 24,
  "curatedCount": 6,
  "manualCount": 0,
  "spots": [
    {
      "name": "草津温泉",
      "lat": 36.620833,
      "lng": 138.596311,
      "address": "群馬県 草津町",
      "source": "curated"
    },
    {
      "name": "吹割の滝",
      "lat": 36.702047,
      "lng": 139.207052,
      "address": "群馬県 沼田市",
      "source": "curated"
    },
    {
      "name": "伊香保温泉",
      "lat": 36.497102,
      "lng": 138.918943,
      "address": "群馬県 渋川市",
      "source": "curated"
    },
    {
      "name": "富岡製糸場",
      "lat": 36.255439,
      "lng": 138.887642,
      "address": "群馬県 富岡市",
      "source": "curated"
    },
    {
      "name": "尾瀬",
      "lat": 36.939842,
      "lng": 139.241597,
      "address": "福島県 檜枝岐村",
      "source": "curated"
    },
    {
      "name": "谷川岳ロープウェイ",
      "lat": 36.827277,
      "lng": 138.955824,
      "address": "群馬県 みなかみ町",
      "source": "curated"
    },
    {
      "name": "渋峠（国道292号・志賀草津道路）",
      "lat": 36.66641,
      "lng": 138.534458,
      "address": "群馬県吾妻郡中之条町入山",
      "source": "recommend",
      "category": "峠・山岳",
      "description": "標高2,172mの国道最高地点。草津温泉〜志賀高原を結ぶ志賀草津道路は雄大な高山帯を走るルートで、残雪の6月も走れる。横手山ドライブインからの雲海と北アルプスの眺望は別格。",
      "tags": [
        "峠",
        "絶景"
      ]
    },
    {
      "name": "万座温泉",
      "lat": 33.259939,
      "lng": 129.890109,
      "address": "群馬県吾妻郡嬬恋村干俣万座温泉",
      "source": "recommend",
      "category": "温泉",
      "description": "標高1,800mに位置する高地温泉。国道292号の万座道路は高原の霧の中を走る幻想的なルート。乳白色の硫黄泉が名物で、日帰り入浴施設も充実。草津からの周遊に最適。",
      "tags": [
        "温泉",
        "峠"
      ]
    },
    {
      "name": "吾妻渓谷",
      "lat": 36.56843,
      "lng": 138.746264,
      "address": "群馬県吾妻郡東吾妻町松谷",
      "source": "recommend",
      "category": "展望台・景勝地",
      "description": "吾妻川が刻んだ関東随一の渓谷美。「関東の耶馬溪」と称される絶壁と清流の景観が見事。国道145号沿いに展望スポットが点在し、川原湯温泉とセットで訪れるルートが人気。",
      "tags": [
        "絶景",
        "紅葉"
      ]
    },
    {
      "name": "妙義山（妙義山荘付近展望）",
      "lat": 36.298974,
      "lng": 138.746258,
      "address": "群馬県富岡市妙義町妙義",
      "source": "recommend",
      "category": "峠・山岳",
      "description": "奇岩怪石が連なる上毛三山の一つ。国道254号から見上げる荒々しい岩山の姿は群馬ツーリングのシンボル。妙義山荘前の駐車場からの眺めが定番で、周辺の山岳ワインディングも楽しめる。",
      "tags": [
        "絶景",
        "峠"
      ]
    },
    {
      "name": "碓氷峠（めがね橋・アプトの道）",
      "lat": 36.344597,
      "lng": 138.650803,
      "address": "群馬県安中市松井田町坂本",
      "source": "recommend",
      "category": "峠・山岳",
      "description": "旧信越本線の鉄道遺産「碓氷第三橋梁（めがね橋）」が見どころ。国道18号碓氷バイパスの旧道は急峻なワインディングで人気のツーリングスポット。軽井沢への定番アクセスルートでもある。",
      "tags": [
        "文化・歴史",
        "峠"
      ]
    },
    {
      "name": "道の駅 草津運動茶屋公園",
      "lat": 36.614802,
      "lng": 138.590353,
      "address": "群馬県吾妻郡草津町草津2-1",
      "source": "recommend",
      "category": "道の駅",
      "description": "草津温泉の玄関口に位置する道の駅。草津の湯をモチーフにしたグルメが揃い、ライダーの聖地的存在。温泉街まで徒歩圏内で、ツーリングの宿泊拠点探しにも活用できる。",
      "tags": [
        "道の駅",
        "温泉"
      ]
    },
    {
      "name": "赤城山（鳥居峠）",
      "lat": 36.555237,
      "lng": 139.178229,
      "address": "群馬県前橋市富士見町赤城山",
      "source": "recommend",
      "category": "峠・山岳",
      "description": "上毛三山の一つで、大沼・小沼の火口湖を抱く標高1,828mの山。県道4号の赤城山道路はタイトなヘアピンが続くガチ峠。山頂周辺のビーナスラインを思わせる高原ルートが快走できる。",
      "tags": [
        "峠",
        "湖"
      ]
    },
    {
      "name": "榛名山・榛名湖",
      "lat": 36.476932,
      "lng": 138.878237,
      "address": "群馬県高崎市榛名湖町",
      "source": "recommend",
      "category": "湖・川",
      "description": "榛名カルデラに生まれた火口湖と外輪山のパノラマが美しい。ダウンヒルの快走路として知られる県道33・28号が峠好きに人気。湖畔のドライブインから見る榛名富士の姿が美しい。",
      "tags": [
        "湖",
        "峠",
        "絶景"
      ]
    },
    {
      "name": "尾瀬（鳩待峠）",
      "lat": 36.939842,
      "lng": 139.241597,
      "address": "群馬県利根郡片品村戸倉",
      "source": "recommend",
      "category": "展望台・景勝地",
      "description": "尾瀬国立公園の玄関口。マイカー規制があるためバイクは鳩待峠まで入れ、駐車場からシャトルバスへ。水芭蕉咲く湿原への入口として、周辺の戸倉〜片品村の山岳ルートが爽快。",
      "tags": [
        "絶景",
        "峠"
      ]
    },
    {
      "name": "四万温泉",
      "lat": 36.685732,
      "lng": 138.774384,
      "address": "群馬県吾妻郡中之条町四万",
      "source": "recommend",
      "category": "温泉",
      "description": "四万の病に効くとされる霊泉の地。千と千尋の神隠しのモデルとも言われる積善館が有名。四万川上流に向かって走る国道353号沿いの渓谷美は、奥まるほど深山幽谷の趣を増す。",
      "tags": [
        "温泉",
        "絶景"
      ]
    },
    {
      "name": "法師温泉（長寿館）",
      "lat": 36.743658,
      "lng": 138.830029,
      "address": "群馬県利根郡みなかみ町永井650",
      "source": "recommend",
      "category": "温泉",
      "description": "みなかみの秘湯で、鉄道の旅ポスターで有名な法師温泉長寿館。県道53号の山道を走って辿り着く秘境感が魅力。三国峠へのルートと組み合わせると充実した山岳ツーリングになる。",
      "tags": [
        "温泉",
        "峠"
      ]
    },
    {
      "name": "奥利根ゆけむり街道（国道291号）",
      "lat": 36.728375,
      "lng": 139.223479,
      "address": "群馬県利根郡みなかみ町湯桧曽",
      "source": "recommend",
      "category": "ツーリングロード",
      "description": "水上温泉から谷川岳ロープウェイまでを結ぶ国道291号。利根川の源流域を遡るルートは、谷川岳を仰ぎながら走れる。ループ橋が有名な土合・湯桧曽ループ区間はライダー必見。",
      "tags": [
        "絶景",
        "峠"
      ]
    },
    {
      "name": "道の駅 川場田園プラザ",
      "lat": 36.686717,
      "lng": 139.106897,
      "address": "群馬県利根郡川場村川場湯原2530",
      "source": "recommend",
      "category": "道の駅",
      "description": "日本一の道の駅に選ばれたことがある人気スポット。クラフトビールや地場産農産物、BBQが楽しめる。川場村の田園風景の中にあり、スキー場や温泉も近い沼田エリアの拠点。",
      "tags": [
        "道の駅",
        "グルメ"
      ]
    },
    {
      "name": "嬬恋パノラマライン",
      "lat": 36.582552,
      "lng": 138.696101,
      "address": "群馬県吾妻郡嬬恋村",
      "source": "recommend",
      "category": "ツーリングロード",
      "description": "嬬恋村のキャベツ畑の中を走る農道で、浅間山と四阿山を両側に眺める開放的な快走路。南北に走る農道は信号がほぼなく、雄大な高原の中を飛ぶように走れるツーリング天国。",
      "tags": [
        "絶景",
        "峠"
      ]
    },
    {
      "name": "三国峠（国道17号）",
      "lat": 35.671946,
      "lng": 139.130975,
      "address": "群馬県利根郡みなかみ町永地",
      "source": "recommend",
      "category": "峠・山岳",
      "description": "群馬と新潟の県境を越える標高1,244mの峠。上越国境の急峻な峠道はタイトなカーブが連続し、峠好きライダーに人気。谷川岳〜苗場山の山岳展望が素晴らしい。",
      "tags": [
        "峠",
        "絶景"
      ]
    },
    {
      "name": "丸沼高原",
      "lat": 40.839247,
      "lng": 140.420044,
      "address": "群馬県利根郡片品村東小川",
      "source": "recommend",
      "category": "展望台・景勝地",
      "description": "片品村の丸沼・菅沼エリアは標高1,500m超の高原リゾート。丸沼から菅沼へ向かう国道120号の湖畔ルートは、日光白根山を映す湖面が美しい。金精峠手前の絶景ポイントとして人気。",
      "tags": [
        "絶景",
        "湖"
      ]
    },
    {
      "name": "道の駅 上野（南牧村）",
      "lat": 36.079969,
      "lng": 138.784013,
      "address": "群馬県多野郡上野村乙父1369-1",
      "source": "recommend",
      "category": "道の駅",
      "description": "日本一人口が少ない村に位置するひなびた雰囲気の道の駅。秘境感漂う上野村への国道299号は、廃村や廃線跡が点在する独特のルート。万場・中里方面の山岳コースの拠点に最適。",
      "tags": [
        "道の駅",
        "峠"
      ]
    },
    {
      "name": "白根山・湯釜",
      "lat": 36.643947,
      "lng": 138.527736,
      "address": "群馬県吾妻郡草津町草津白根",
      "source": "recommend",
      "category": "展望台・景勝地",
      "description": "草津白根山の火口湖「湯釜」は鮮烈なエメラルドグリーンが見事。火山規制の解除時に限り、山頂周辺の遊歩道から湯釜を見下ろせる。志賀草津道路の最大のハイライトスポット。",
      "tags": [
        "絶景",
        "峠"
      ]
    }
  ],
  "recommendCount": 18
}