{
  "prefecture": "群馬県",
  "romaji": "gunma",
  "count": 6,
  "curatedCount": 6,
  "manualCount": 0,
  "spots": [
    {
      "name": "草津温泉",
      "lat": 36.620833,
      "lng": 138.596311,
      "address": "群馬県 草津町",
      "source": "curated"
    },
    {
      "name": "吹割の滝",
      "lat": 36.702047,
      "lng": 139.207052,
      "address": "群馬県 沼田市",
      "source": "curated"
    },
    {
      "name": "伊香保温泉",
      "lat": 36.497102,
      "lng": 138.918943,
      "address": "群馬県 渋川市",
      "source": "curated"
    },
    {
      "name": "富岡製糸場",
      "lat": 36.255439,
      "lng": 138.887642,
      "address": "群馬県 富岡市",
      "source": "curated"
    },
    {
      "name": "尾瀬",
      "lat": 36.939842,
      "lng": 139.241597,
      "address": "福島県 檜枝岐村",
      "source": "curated"
    },
    {
      "name": "谷川岳ロープウェイ",
      "lat": 36.827277,
      "lng": 138.955824,
      "address": "群馬県 みなかみ町",
      "source": "curated"
    }
  ]
}
