{
  "prefecture": "群馬県",
  "romaji": "gunma",
  "count": 18,
  "curatedCount": 18,
  "manualCount": 0,
  "spots": [
    {
      "spotId": null,
      "name": "伊香保温泉",
      "lat": 36.498252,
      "lng": 138.91654,
      "address": "群馬県 渋川市",
      "imageURL": null,
      "source": "curated"
    },
    {
      "spotId": null,
      "name": "碓氷峠（めがね橋・アプトの道）",
      "lat": 36.358062,
      "lng": 138.698187,
      "address": "群馬県安中市松井田町坂本",
      "imageURL": null,
      "source": "curated"
    },
    {
      "spotId": null,
      "name": "丸沼高原",
      "lat": 36.833629,
      "lng": 139.3463,
      "address": "群馬県利根郡片品村東小川",
      "imageURL": null,
      "source": "curated"
    },
    {
      "spotId": null,
      "name": "吾妻渓谷",
      "lat": 36.568641,
      "lng": 138.745834,
      "address": "群馬県吾妻郡東吾妻町松谷",
      "imageURL": null,
      "source": "curated"
    },
    {
      "spotId": null,
      "name": "渋峠（国道292号・志賀草津道路）",
      "lat": 36.660708,
      "lng": 138.535194,
      "address": "群馬県吾妻郡中之条町入山",
      "imageURL": null,
      "source": "curated"
    },
    {
      "spotId": null,
      "name": "榛名山・榛名湖",
      "lat": 36.470666,
      "lng": 138.874258,
      "address": "群馬県高崎市榛名湖町",
      "imageURL": null,
      "source": "curated"
    },
    {
      "spotId": null,
      "name": "吹割の滝",
      "lat": 36.702047,
      "lng": 139.207052,
      "address": "群馬県 沼田市",
      "imageURL": null,
      "source": "curated"
    },
    {
      "spotId": null,
      "name": "赤城山（鳥居峠）",
      "lat": 36.548427,
      "lng": 139.184616,
      "address": "群馬県前橋市富士見町赤城山",
      "imageURL": null,
      "source": "curated"
    },
    {
      "spotId": null,
      "name": "草津温泉",
      "lat": 36.622968,
      "lng": 138.596649,
      "address": "群馬県 草津町",
      "imageURL": null,
      "source": "curated"
    },
    {
      "spotId": null,
      "name": "谷川岳ロープウェイ",
      "lat": 36.815607,
      "lng": 138.94598,
      "address": "群馬県 みなかみ町",
      "imageURL": null,
      "source": "curated"
    },
    {
      "spotId": null,
      "name": "嬬恋パノラマライン",
      "lat": 36.564082,
      "lng": 138.524144,
      "address": "群馬県吾妻郡嬬恋村",
      "imageURL": null,
      "source": "curated"
    },
    {
      "spotId": null,
      "name": "道の駅 上野（南牧村）",
      "lat": 36.079969,
      "lng": 138.784013,
      "address": "群馬県多野郡上野村乙父1369-1",
      "imageURL": null,
      "source": "curated"
    },
    {
      "spotId": null,
      "name": "道の駅 川場田園プラザ",
      "lat": 36.686717,
      "lng": 139.106897,
      "address": "群馬県利根郡川場村川場湯原2530",
      "imageURL": null,
      "source": "curated"
    },
    {
      "spotId": null,
      "name": "道の駅 草津運動茶屋公園",
      "lat": 36.614802,
      "lng": 138.590353,
      "address": "群馬県吾妻郡草津町草津2-1",
      "imageURL": null,
      "source": "curated"
    },
    {
      "spotId": null,
      "name": "白根山・湯釜",
      "lat": 36.642804,
      "lng": 138.522792,
      "address": "群馬県吾妻郡草津町草津白根",
      "imageURL": null,
      "source": "curated"
    },
    {
      "spotId": null,
      "name": "富岡製糸場",
      "lat": 36.255439,
      "lng": 138.887642,
      "address": "群馬県 富岡市",
      "imageURL": null,
      "source": "curated"
    },
    {
      "spotId": null,
      "name": "万座温泉",
      "lat": 36.642107,
      "lng": 138.511537,
      "address": "群馬県吾妻郡嬬恋村干俣万座温泉",
      "imageURL": null,
      "source": "curated"
    },
    {
      "spotId": null,
      "name": "妙義山（妙義山荘付近展望）",
      "lat": 36.300479,
      "lng": 138.762506,
      "address": "群馬県富岡市妙義町妙義",
      "imageURL": null,
      "source": "curated"
    }
  ]
}
