{
  "prefecture": "広島県",
  "romaji": "hiroshima",
  "count": 16,
  "curatedCount": 16,
  "manualCount": 0,
  "spots": [
    {
      "spotId": null,
      "name": "因島（フラワーセンター）",
      "lat": 34.345465,
      "lng": 133.151861,
      "address": "広島県尾道市因島大浜町",
      "imageURL": null,
      "source": "curated"
    },
    {
      "spotId": null,
      "name": "温井ダム（龍姫湖）",
      "lat": 34.635168,
      "lng": 132.301483,
      "address": "広島県山県郡安芸太田町加計",
      "imageURL": null,
      "source": "curated"
    },
    {
      "spotId": null,
      "name": "岩子島 厳島神社 鳥居",
      "lat": 34.377587,
      "lng": 133.156443,
      "address": "広島県尾道市向島町",
      "imageURL": null,
      "source": "curated"
    },
    {
      "spotId": null,
      "name": "原爆ドーム",
      "lat": 34.395466,
      "lng": 132.453524,
      "address": "広島県 広島市",
      "imageURL": null,
      "source": "curated"
    },
    {
      "spotId": null,
      "name": "厳島神社",
      "lat": 34.296542,
      "lng": 132.319008,
      "address": "広島県 廿日市市",
      "imageURL": null,
      "source": "curated"
    },
    {
      "spotId": null,
      "name": "呉・大和ミュージアム",
      "lat": 34.241182,
      "lng": 132.555799,
      "address": "広島県呉市宝町5-20",
      "imageURL": null,
      "source": "curated"
    },
    {
      "spotId": null,
      "name": "三段峡",
      "lat": 34.59959,
      "lng": 132.208517,
      "address": "広島県山県郡安芸太田町穴",
      "imageURL": null,
      "source": "curated"
    },
    {
      "spotId": null,
      "name": "縮景園",
      "lat": 34.400327,
      "lng": 132.467445,
      "address": "広島県 広島市",
      "imageURL": null,
      "source": "curated"
    },
    {
      "spotId": null,
      "name": "生口島・耕三寺・平山郁夫美術館",
      "lat": 34.304875,
      "lng": 133.090267,
      "address": "広島県尾道市瀬戸田町瀬戸田553-2",
      "imageURL": null,
      "source": "curated"
    },
    {
      "spotId": null,
      "name": "千光寺",
      "lat": 34.410365,
      "lng": 133.198685,
      "address": "広島県 尾道市",
      "imageURL": null,
      "source": "curated"
    },
    {
      "spotId": null,
      "name": "大久野島",
      "lat": 34.309121,
      "lng": 132.993759,
      "address": "広島県 竹原市",
      "imageURL": null,
      "source": "curated"
    },
    {
      "spotId": null,
      "name": "帝釈峡",
      "lat": 34.862553,
      "lng": 133.206224,
      "address": "広島県神石郡神石高原町永野",
      "imageURL": null,
      "source": "curated"
    },
    {
      "spotId": null,
      "name": "道の駅 クロスロードみつぎ",
      "lat": 34.51152,
      "lng": 133.144378,
      "address": "広島県尾道市御調町市869-1",
      "imageURL": null,
      "source": "curated"
    },
    {
      "spotId": null,
      "name": "道の駅 スパ羅漢",
      "lat": 34.38936,
      "lng": 132.104541,
      "address": "広島県山県郡安芸太田町上殿675-1",
      "imageURL": null,
      "source": "curated"
    },
    {
      "spotId": null,
      "name": "道の駅 たけはら",
      "lat": 34.343932,
      "lng": 132.912169,
      "address": "広島県竹原市本町3丁目",
      "imageURL": null,
      "source": "curated"
    },
    {
      "spotId": null,
      "name": "平和記念公園",
      "lat": 34.393171,
      "lng": 132.452301,
      "address": "広島県 広島市",
      "imageURL": null,
      "source": "curated"
    }
  ]
}
