{
  "prefecture": "広島県",
  "romaji": "hiroshima",
  "count": 6,
  "curatedCount": 6,
  "manualCount": 0,
  "spots": [
    {
      "name": "厳島神社",
      "lat": 34.296542,
      "lng": 132.319008,
      "address": "広島県 廿日市市",
      "source": "curated"
    },
    {
      "name": "原爆ドーム",
      "lat": 34.395466,
      "lng": 132.453524,
      "address": "広島県 広島市",
      "source": "curated"
    },
    {
      "name": "千光寺",
      "lat": 34.410365,
      "lng": 133.198685,
      "address": "広島県 尾道市",
      "source": "curated"
    },
    {
      "name": "平和記念公園",
      "lat": 34.393171,
      "lng": 132.452301,
      "address": "広島県 広島市",
      "source": "curated"
    },
    {
      "name": "大久野島",
      "lat": 34.309121,
      "lng": 132.993759,
      "address": "広島県 竹原市",
      "source": "curated"
    },
    {
      "name": "縮景園",
      "lat": 34.400327,
      "lng": 132.467445,
      "address": "広島県 広島市",
      "source": "curated"
    }
  ]
}
