{
  "prefecture": "北海道",
  "romaji": "hokkaido",
  "count": 6,
  "curatedCount": 6,
  "manualCount": 0,
  "spots": [
    {
      "name": "五稜郭",
      "lat": 41.7968,
      "lng": 140.757033,
      "address": "北海道 函館市",
      "source": "curated"
    },
    {
      "name": "函館山",
      "lat": 41.759319,
      "lng": 140.703984,
      "address": "北海道 函館市",
      "source": "curated"
    },
    {
      "name": "摩周湖",
      "lat": 43.578919,
      "lng": 144.517032,
      "address": "北海道 弟子屈町",
      "source": "curated"
    },
    {
      "name": "旭山動物園",
      "lat": 43.768642,
      "lng": 142.479273,
      "address": "北海道 旭川市",
      "source": "curated"
    },
    {
      "name": "青い池 美瑛",
      "lat": 43.49349,
      "lng": 142.614098,
      "address": "北海道 美瑛町",
      "source": "curated"
    },
    {
      "name": "小樽運河",
      "lat": 43.202023,
      "lng": 141.0006,
      "address": "北海道 小樽市",
      "source": "curated"
    }
  ]
}
