{
  "prefecture": "北海道",
  "romaji": "hokkaido",
  "count": 27,
  "curatedCount": 25,
  "manualCount": 2,
  "spots": [
    {
      "spotId": null,
      "name": "オトンルイ風力発電所",
      "lat": 44.962872,
      "lng": 141.70324,
      "address": "北海道 幌延町",
      "imageURL": null,
      "source": "manual"
    },
    {
      "spotId": null,
      "name": "オロロンライン（天塩〜稚内）",
      "lat": 43.236458,
      "lng": 141.361502,
      "address": "北海道天塩郡天塩町〜稚内市",
      "imageURL": null,
      "source": "curated"
    },
    {
      "spotId": null,
      "name": "ニセコパノラマライン（道道66号）",
      "lat": 42.88858,
      "lng": 140.606892,
      "address": "北海道磯谷郡蘭越町〜虻田郡ニセコ町",
      "imageURL": null,
      "source": "curated"
    },
    {
      "spotId": null,
      "name": "旭山動物園",
      "lat": 43.768642,
      "lng": 142.479273,
      "address": "北海道 旭川市",
      "imageURL": null,
      "source": "curated"
    },
    {
      "spotId": null,
      "name": "釧路湿原展望台",
      "lat": 43.073888,
      "lng": 144.32059,
      "address": "北海道釧路市北斗",
      "imageURL": null,
      "source": "curated"
    },
    {
      "spotId": null,
      "name": "五稜郭",
      "lat": 41.7968,
      "lng": 140.757033,
      "address": "北海道 函館市",
      "imageURL": null,
      "source": "curated"
    },
    {
      "spotId": null,
      "name": "支笏湖ブルー展望スポット",
      "lat": 42.770235,
      "lng": 141.403592,
      "address": "北海道千歳市支笏湖温泉",
      "imageURL": null,
      "source": "curated"
    },
    {
      "spotId": null,
      "name": "宗谷岬",
      "lat": 45.522886,
      "lng": 141.9366,
      "address": "北海道稚内市宗谷岬",
      "imageURL": null,
      "source": "curated"
    },
    {
      "spotId": null,
      "name": "小樽運河",
      "lat": 43.199047,
      "lng": 141.002022,
      "address": "北海道 小樽市",
      "imageURL": null,
      "source": "curated"
    },
    {
      "spotId": null,
      "name": "青い池 美瑛",
      "lat": 43.49349,
      "lng": 142.614098,
      "address": "北海道 美瑛町",
      "imageURL": null,
      "source": "curated"
    },
    {
      "spotId": null,
      "name": "積丹岬（神威岬）",
      "lat": 43.371194,
      "lng": 140.477192,
      "address": "北海道積丹郡積丹町神岬町",
      "imageURL": null,
      "source": "curated"
    },
    {
      "spotId": null,
      "name": "層雲峡温泉",
      "lat": 43.727487,
      "lng": 142.947344,
      "address": "北海道上川郡上川町層雲峡",
      "imageURL": null,
      "source": "curated"
    },
    {
      "spotId": null,
      "name": "増毛国稀酒造",
      "lat": 43.85784,
      "lng": 141.523143,
      "address": "北海道増毛郡増毛町稲葉町1-17",
      "imageURL": null,
      "source": "curated"
    },
    {
      "spotId": null,
      "name": "大雪山旭岳ロープウェイ",
      "lat": 43.652516,
      "lng": 142.79834,
      "address": "北海道上川郡東川町勇駒別",
      "imageURL": null,
      "source": "curated"
    },
    {
      "spotId": null,
      "name": "知床峠",
      "lat": 44.054671,
      "lng": 145.10511,
      "address": "北海道斜里郡斜里町岩尾別",
      "imageURL": null,
      "source": "curated"
    },
    {
      "spotId": null,
      "name": "天に続く道（国道334号展望台）",
      "lat": 43.906401,
      "lng": 144.785545,
      "address": "北海道斜里郡斜里町峰浜",
      "imageURL": null,
      "source": "curated"
    },
    {
      "spotId": null,
      "name": "天に続く道展望台",
      "lat": 43.906401,
      "lng": 144.785545,
      "address": "北海道 斜里町",
      "imageURL": null,
      "source": "manual"
    },
    {
      "spotId": null,
      "name": "洞爺湖展望台",
      "lat": 42.625915,
      "lng": 140.799958,
      "address": "北海道虻田郡洞爺湖町洞爺湖温泉",
      "imageURL": null,
      "source": "curated"
    },
    {
      "spotId": null,
      "name": "道の駅 うとろ・シリエトク",
      "lat": 44.06862,
      "lng": 144.990449,
      "address": "北海道斜里郡斜里町ウトロ東186-10",
      "imageURL": null,
      "source": "curated"
    },
    {
      "spotId": null,
      "name": "道の駅 オホーツク紋別",
      "lat": 44.131099,
      "lng": 143.718875,
      "address": "北海道紋別市本町7-44-1",
      "imageURL": null,
      "source": "curated"
    },
    {
      "spotId": null,
      "name": "道の駅 流氷街道網走",
      "lat": 44.021939,
      "lng": 144.274275,
      "address": "北海道網走市南3条東4-5-1",
      "imageURL": null,
      "source": "curated"
    },
    {
      "spotId": null,
      "name": "納沙布岬",
      "lat": 43.385295,
      "lng": 145.81682,
      "address": "北海道根室市納沙布",
      "imageURL": null,
      "source": "curated"
    },
    {
      "spotId": null,
      "name": "函館山",
      "lat": 41.759319,
      "lng": 140.703984,
      "address": "北海道 函館市",
      "imageURL": null,
      "source": "curated"
    },
    {
      "spotId": null,
      "name": "函館山展望台",
      "lat": 41.75943,
      "lng": 140.704641,
      "address": "北海道函館市函館山",
      "imageURL": null,
      "source": "curated"
    },
    {
      "spotId": null,
      "name": "美瑛 パッチワークの路",
      "lat": 43.59096,
      "lng": 142.461225,
      "address": "北海道上川郡美瑛町北瑛",
      "imageURL": null,
      "source": "curated"
    },
    {
      "spotId": null,
      "name": "摩周湖",
      "lat": 43.583313,
      "lng": 144.503603,
      "address": "北海道 弟子屈町",
      "imageURL": null,
      "source": "curated"
    },
    {
      "spotId": null,
      "name": "摩周湖第一展望台",
      "lat": 43.557,
      "lng": 144.507421,
      "address": "北海道川上郡弟子屈町",
      "imageURL": null,
      "source": "curated"
    }
  ]
}
