{
  "prefecture": "北海道",
  "romaji": "hokkaido",
  "count": 28,
  "curatedCount": 6,
  "manualCount": 2,
  "spots": [
    {
      "spotId": null,
      "name": "オトンルイ風力発電所",
      "lat": 44.976019,
      "lng": 141.698107,
      "address": "北海道 幌延町",
      "imageURL": null,
      "source": "manual"
    },
    {
      "spotId": null,
      "name": "天に続く道展望台",
      "lat": 43.906401,
      "lng": 144.785545,
      "address": "北海道 斜里町",
      "imageURL": null,
      "source": "manual"
    },
    {
      "name": "五稜郭",
      "lat": 41.7968,
      "lng": 140.757033,
      "address": "北海道 函館市",
      "source": "curated"
    },
    {
      "name": "函館山",
      "lat": 41.759319,
      "lng": 140.703984,
      "address": "北海道 函館市",
      "source": "curated"
    },
    {
      "name": "摩周湖",
      "lat": 43.578919,
      "lng": 144.517032,
      "address": "北海道 弟子屈町",
      "source": "curated"
    },
    {
      "name": "旭山動物園",
      "lat": 43.768642,
      "lng": 142.479273,
      "address": "北海道 旭川市",
      "source": "curated"
    },
    {
      "name": "青い池 美瑛",
      "lat": 43.49349,
      "lng": 142.614098,
      "address": "北海道 美瑛町",
      "source": "curated"
    },
    {
      "name": "小樽運河",
      "lat": 43.202023,
      "lng": 141.0006,
      "address": "北海道 小樽市",
      "source": "curated"
    },
    {
      "name": "知床峠",
      "lat": 44.054671,
      "lng": 145.10511,
      "address": "北海道斜里郡斜里町岩尾別",
      "source": "recommend",
      "category": "峠・山岳",
      "description": "知床半島を横断する国道334号の峠。標高738mから羅臼岳や国後島を望む絶景が広がり、ライダーに圧倒的人気を誇るルート。",
      "tags": [
        "絶景",
        "峠",
        "世界遺産",
        "紅葉"
      ]
    },
    {
      "name": "オロロンライン（天塩〜稚内）",
      "lat": 43.231247,
      "lng": 141.355131,
      "address": "北海道天塩郡天塩町〜稚内市",
      "source": "recommend",
      "category": "ツーリングロード",
      "description": "日本海沿いを北上する国道232号。利尻富士を眺めながら快走できる北海道屈指のツーリングロードで、遮るものがない開放感が魅力。",
      "tags": [
        "絶景",
        "海岸線",
        "夕日"
      ]
    },
    {
      "name": "宗谷岬",
      "lat": 45.522886,
      "lng": 141.9366,
      "address": "北海道稚内市宗谷岬",
      "source": "recommend",
      "category": "海岸・岬",
      "description": "日本最北端の地。最北端の地碑と宗谷海峡を望む景観は多くのライダーの聖地とされ、到達証明書を発行してもらえるのも人気の理由。",
      "tags": [
        "絶景",
        "海岸線",
        "夕日"
      ]
    },
    {
      "name": "天に続く道（国道334号展望台）",
      "lat": 43.906401,
      "lng": 144.785545,
      "address": "北海道斜里郡斜里町峰浜",
      "source": "recommend",
      "category": "展望台・景勝地",
      "description": "斜里町にある約28kmの直線道路。朝日を受けて天に向かって伸びるような絶景が撮影でき、インスタグラムでも世界的に有名な北海道の人気スポット。",
      "tags": [
        "絶景",
        "朝日"
      ]
    },
    {
      "name": "美瑛 パッチワークの路",
      "lat": 43.59096,
      "lng": 142.461225,
      "address": "北海道上川郡美瑛町北瑛",
      "source": "recommend",
      "category": "展望台・景勝地",
      "description": "丘陵地に広がる色とりどりの畑が織りなすパッチワーク状の景観。なだらかな丘を縫うように走る農道ツーリングは北海道ならではの体験。",
      "tags": [
        "絶景",
        "紅葉",
        "桜"
      ]
    },
    {
      "name": "摩周湖第一展望台",
      "lat": 43.557,
      "lng": 144.507421,
      "address": "北海道川上郡弟子屈町",
      "source": "recommend",
      "category": "湖・川",
      "description": "霧の摩周湖として有名な世界有数の透明度を誇るカルデラ湖。周囲は立入禁止で湖面に降りられないが、展望台からのコバルトブルーの眺めは圧巻。",
      "tags": [
        "絶景",
        "湖"
      ]
    },
    {
      "name": "釧路湿原展望台",
      "lat": 38.286312,
      "lng": 141.51816,
      "address": "北海道釧路市北斗",
      "source": "recommend",
      "category": "展望台・景勝地",
      "description": "日本最大の湿原・釧路湿原を一望できる展望台。雄大な自然の中をタンチョウが舞う光景は北海道らしさを存分に感じさせる。",
      "tags": [
        "絶景",
        "自然"
      ]
    },
    {
      "name": "納沙布岬",
      "lat": 43.385295,
      "lng": 145.81682,
      "address": "北海道根室市納沙布",
      "source": "recommend",
      "category": "海岸・岬",
      "description": "本土最東端の岬。夜明けが最も早く、北方領土を最も近くに望める場所として知られるライダーの聖地。早朝ツーリングで日本一の朝日を体感できる。",
      "tags": [
        "絶景",
        "朝日",
        "海岸線"
      ]
    },
    {
      "name": "大雪山旭岳ロープウェイ",
      "lat": 43.657449,
      "lng": 142.811779,
      "address": "北海道上川郡東川町勇駒別",
      "source": "recommend",
      "category": "峠・山岳",
      "description": "北海道最高峰・旭岳の5合目（標高1600m）まで運ぶロープウェイ。紅葉は全国最も早く9月上旬から始まり、雄大な高山の景観が楽しめる。",
      "tags": [
        "絶景",
        "紅葉",
        "雪景色"
      ]
    },
    {
      "name": "道の駅 オホーツク紋別",
      "lat": 44.131099,
      "lng": 143.718875,
      "address": "北海道紋別市本町7-44-1",
      "source": "recommend",
      "category": "道の駅",
      "description": "流氷の街・紋別に位置する道の駅。クリオネの展示や流氷科学センターを併設し、オホーツク海の恵みを楽しめるグルメも充実。",
      "tags": [
        "道の駅",
        "グルメ",
        "雪景色"
      ]
    },
    {
      "name": "積丹岬（神威岬）",
      "lat": 43.372199,
      "lng": 140.462221,
      "address": "北海道積丹郡積丹町神岬町",
      "source": "recommend",
      "category": "海岸・岬",
      "description": "積丹半島の先端に位置する神威岬。コバルトブルーの積丹ブルーと荒々しい断崖が続く遊歩道から眺める日本海は北海道随一の美しさ。",
      "tags": [
        "絶景",
        "海岸線",
        "夕日"
      ]
    },
    {
      "name": "函館山展望台",
      "lat": 41.75943,
      "lng": 140.704641,
      "address": "北海道函館市函館山",
      "source": "recommend",
      "category": "展望台・景勝地",
      "description": "世界三大夜景のひとつ。昼は津軽海峡と下北半島まで見渡せ、夕暮れ〜夜景と表情を変える函館の景観はツーリングの締めくくりに最適。",
      "tags": [
        "絶景",
        "夕日",
        "夜景"
      ]
    },
    {
      "name": "洞爺湖展望台",
      "lat": 42.625915,
      "lng": 140.799958,
      "address": "北海道虻田郡洞爺湖町洞爺湖温泉",
      "source": "recommend",
      "category": "湖・川",
      "description": "支笏洞爺国立公園内のカルデラ湖。有珠山や昭和新山を望みながら湖畔を一周できる絶好のツーリングコースで温泉街も充実している。",
      "tags": [
        "絶景",
        "湖",
        "温泉"
      ]
    },
    {
      "name": "ニセコパノラマライン（道道66号）",
      "lat": 42.8566,
      "lng": 140.6622,
      "address": "北海道磯谷郡蘭越町〜虻田郡ニセコ町",
      "source": "recommend",
      "category": "ツーリングロード",
      "description": "ニセコ山系を縦断する快走路。羊蹄山や日本海を望みながらワインディングを楽しめる人気のツーリングルートで秋の紅葉も美しい。",
      "tags": [
        "峠",
        "絶景",
        "紅葉"
      ]
    },
    {
      "name": "道の駅 流氷街道網走",
      "lat": 44.021939,
      "lng": 144.274275,
      "address": "北海道網走市南3条東4-5-1",
      "source": "recommend",
      "category": "道の駅",
      "description": "オホーツク海の流氷観光の拠点となる道の駅。ガリンコ号などの流氷砕氷船乗船場に近く、新鮮な海産物グルメが楽しめる人気施設。",
      "tags": [
        "道の駅",
        "グルメ",
        "雪景色"
      ]
    },
    {
      "name": "層雲峡温泉",
      "lat": 43.727487,
      "lng": 142.947344,
      "address": "北海道上川郡上川町層雲峡",
      "source": "recommend",
      "category": "温泉",
      "description": "大雪山国立公園内、石狩川沿いに広がる高さ100m超の断崖絶壁が続く峡谷の温泉地。柱状節理の岩壁が連なる景観は北海道随一の渓谷美。",
      "tags": [
        "温泉",
        "絶景",
        "紅葉"
      ]
    },
    {
      "name": "日高山脈馬追丘陵",
      "lat": 42.71548,
      "lng": 142.377557,
      "address": "北海道沙流郡日高町",
      "source": "recommend",
      "category": "ツーリングロード",
      "description": "日高の広大な牧場地帯を抜けるツーリングルート。サラブレッドの放牧風景と日高山脈の雄大な山並みが続き、北海道らしい開放感を満喫できる。",
      "tags": [
        "絶景",
        "自然"
      ]
    },
    {
      "name": "増毛国稀酒造",
      "lat": 43.858383,
      "lng": 141.522795,
      "address": "北海道増毛郡増毛町稲葉町1-17",
      "source": "recommend",
      "category": "文化・歴史",
      "description": "北海道最古の酒蔵として知られる増毛町の歴史的建造物。ニシン漁で栄えた港町の面影が残る趣ある街並みと日本海沿岸のツーリングを組み合わせられる。",
      "tags": [
        "文化",
        "歴史",
        "海岸線"
      ]
    },
    {
      "name": "道の駅 うとろ・シリエトク",
      "lat": 44.06862,
      "lng": 144.990449,
      "address": "北海道斜里郡斜里町ウトロ東186-10",
      "source": "recommend",
      "category": "道の駅",
      "description": "世界自然遺産・知床半島の玄関口に位置する道の駅。知床観光の拠点として、新鮮な魚介グルメや世界遺産センターへのアクセスが便利。",
      "tags": [
        "道の駅",
        "世界遺産",
        "グルメ"
      ]
    },
    {
      "name": "支笏湖ブルー展望スポット",
      "lat": 42.6943,
      "lng": 141.3589,
      "address": "北海道千歳市支笏湖温泉",
      "source": "recommend",
      "category": "湖・川",
      "description": "透明度の高さで有名な支笏湖。全国屈指の透明度を誇るコバルトブルーの湖面と恵庭岳・樽前山の山容が美しく、湖畔周遊ツーリングが楽しめる。",
      "tags": [
        "絶景",
        "湖",
        "温泉"
      ]
    }
  ],
  "recommendCount": 20
}