{
  "prefecture": "茨城県",
  "romaji": "ibaraki",
  "count": 6,
  "curatedCount": 6,
  "manualCount": 0,
  "spots": [
    {
      "name": "国営ひたち海浜公園",
      "lat": 36.402528,
      "lng": 140.594347,
      "address": "茨城県 ひたちなか市",
      "source": "curated"
    },
    {
      "name": "袋田の滝",
      "lat": 36.764617,
      "lng": 140.407251,
      "address": "茨城県 大子町",
      "source": "curated"
    },
    {
      "name": "偕楽園",
      "lat": 36.375135,
      "lng": 140.453545,
      "address": "茨城県 水戸市",
      "source": "curated"
    },
    {
      "name": "牛久大仏",
      "lat": 35.982645,
      "lng": 140.220248,
      "address": "茨城県 牛久市",
      "source": "curated"
    },
    {
      "name": "竜神大吊橋",
      "lat": 36.683857,
      "lng": 140.465828,
      "address": "茨城県 常陸太田市",
      "source": "curated"
    },
    {
      "name": "大洗磯前神社",
      "lat": 36.315807,
      "lng": 140.587752,
      "address": "茨城県 大洗町",
      "source": "curated"
    }
  ]
}
