{
  "prefecture": "茨城県",
  "romaji": "ibaraki",
  "count": 23,
  "curatedCount": 6,
  "manualCount": 0,
  "spots": [
    {
      "name": "国営ひたち海浜公園",
      "lat": 36.402528,
      "lng": 140.594347,
      "address": "茨城県 ひたちなか市",
      "source": "curated"
    },
    {
      "name": "袋田の滝",
      "lat": 36.764617,
      "lng": 140.407251,
      "address": "茨城県 大子町",
      "source": "curated"
    },
    {
      "name": "偕楽園",
      "lat": 36.375135,
      "lng": 140.453545,
      "address": "茨城県 水戸市",
      "source": "curated"
    },
    {
      "name": "牛久大仏",
      "lat": 35.982645,
      "lng": 140.220248,
      "address": "茨城県 牛久市",
      "source": "curated"
    },
    {
      "name": "竜神大吊橋",
      "lat": 36.683857,
      "lng": 140.465828,
      "address": "茨城県 常陸太田市",
      "source": "curated"
    },
    {
      "name": "大洗磯前神社",
      "lat": 36.315807,
      "lng": 140.587752,
      "address": "茨城県 大洗町",
      "source": "curated"
    },
    {
      "name": "筑波山",
      "lat": 36.225395,
      "lng": 140.106719,
      "address": "茨城県つくば市筑波1",
      "source": "recommend",
      "category": "峠・山岳",
      "description": "関東平野に孤立してそびえる標高877mの霊峰。周辺の県道はワインディングが楽しく、山頂からの関東平野の眺望は圧巻。春は梅・桜、秋は紅葉が美しいツーリングの名所。",
      "tags": [
        "絶景",
        "峠",
        "紅葉",
        "桜"
      ]
    },
    {
      "name": "大洗磯前神社（大洗海岸）",
      "lat": 36.315807,
      "lng": 140.587752,
      "address": "茨城県東茨城郡大洗町磯浜町6890",
      "source": "recommend",
      "category": "海岸・岬",
      "description": "海に突き出た岩礁の上に建つ鳥居が絶景。茨城の海岸線ツーリングのハイライトで、朝日スポットとしても名高い。近くの大洗港ではフェリーと漁師飯も楽しめる。",
      "tags": [
        "絶景",
        "海岸線",
        "夕日"
      ]
    },
    {
      "name": "霞ヶ浦湖岸道路",
      "lat": 36.07863,
      "lng": 140.204593,
      "address": "茨城県土浦市川口1",
      "source": "recommend",
      "category": "ツーリングロード",
      "description": "日本第2位の広さを誇る霞ヶ浦を周回する県道。水面を眺めながら走れる直線路が続き、風力発電の風車も点在する爽快なルート。ほぼ信号なしで走れる区間もある。",
      "tags": [
        "絶景",
        "湖"
      ]
    },
    {
      "name": "道の駅 奥久慈だいご",
      "lat": 36.768564,
      "lng": 140.359037,
      "address": "茨城県久慈郡大子町池田2830-1",
      "source": "recommend",
      "category": "道の駅",
      "description": "奥久慈の山あいに位置する道の駅。袋田の滝ツーリングの休憩拠点として人気。久慈川の清流を眺めながら、地元産のリンゴや山菜料理が楽しめる。",
      "tags": [
        "道の駅",
        "グルメ"
      ]
    },
    {
      "name": "五浦海岸（六角堂）",
      "lat": 36.839289,
      "lng": 140.799801,
      "address": "茨城県北茨城市大津町五浦727-2",
      "source": "recommend",
      "category": "海岸・岬",
      "description": "断崖絶壁の荒磯に建つ岡倉天心ゆかりの六角堂が象徴的な景勝地。太平洋の荒波と奇岩が織りなす風景は独特の迫力があり、北茨城の海岸線ツーリングで必訪のスポット。",
      "tags": [
        "絶景",
        "海岸線",
        "文化・歴史"
      ]
    },
    {
      "name": "笠間稲荷神社",
      "lat": 36.385472,
      "lng": 140.254384,
      "address": "茨城県笠間市笠間1",
      "source": "recommend",
      "category": "文化・歴史",
      "description": "日本三大稲荷の一つ。陶芸の町笠間に鎮座する由緒ある神社で、参道の門前グルメも充実。笠間焼の陶芸ロードを組み合わせたツーリングが人気。",
      "tags": [
        "文化・歴史",
        "グルメ"
      ]
    },
    {
      "name": "常陸海浜公園",
      "lat": 36.402528,
      "lng": 140.594347,
      "address": "茨城県ひたちなか市馬渡字大沼605-4",
      "source": "recommend",
      "category": "展望台・景勝地",
      "description": "国営公園として広大な敷地を誇り、春のネモフィラ（青の絨毯）と秋のコキアの紅葉が全国的に有名。水戸方面からのツーリングの折り返し地点として最適。",
      "tags": [
        "絶景",
        "紅葉",
        "桜"
      ]
    },
    {
      "name": "日立市かみね公園展望台",
      "lat": 36.599123,
      "lng": 140.65046,
      "address": "茨城県日立市宮田町5-2-22",
      "source": "recommend",
      "category": "展望台・景勝地",
      "description": "太平洋を一望できる高台に位置する展望台。日立港と工場夜景、水平線の日の出が有名。日立灯台周辺は海岸線ツーリングの絶好ポイントでもある。",
      "tags": [
        "絶景",
        "夕日",
        "海岸線"
      ]
    },
    {
      "name": "奥久慈パノラマライン（県道29号）",
      "lat": 36.7398,
      "lng": 140.4176,
      "address": "茨城県常陸大宮市野口",
      "source": "recommend",
      "category": "ツーリングロード",
      "description": "奥久慈の山岳地帯を縦断する全長約40kmのワインディングロード。尾根伝いに走る区間からは久慈川流域の山並みが広がり、交通量が少なくバイクで快走できる。",
      "tags": [
        "峠",
        "絶景"
      ]
    },
    {
      "name": "花貫渓谷",
      "lat": 37.913453,
      "lng": 139.040506,
      "address": "茨城県高萩市中戸川",
      "source": "recommend",
      "category": "展望台・景勝地",
      "description": "紅葉の名所として県内随一の渓谷。汐見滝吊り橋周辺の紅葉は11月上旬が見頃で、色鮮やかなもみじのトンネルが圧巻。北茨城ツーリングの定番コースに含まれる。",
      "tags": [
        "紅葉",
        "絶景"
      ]
    },
    {
      "name": "道の駅 ひたちおおた",
      "lat": 36.518514,
      "lng": 140.570621,
      "address": "茨城県常陸太田市天神林町2197",
      "source": "recommend",
      "category": "道の駅",
      "description": "常陸太田の市街地近くにある道の駅。奥久慈りんごや常陸牛バーガーが人気で、ライダーの休憩スポットとして定着。近くに西山荘（水戸黄門の隠居所）もある。",
      "tags": [
        "道の駅",
        "グルメ"
      ]
    },
    {
      "name": "竜神峡・竜神大吊橋",
      "lat": 35.955688,
      "lng": 140.631358,
      "address": "茨城県常陸太田市天下野町2133-6",
      "source": "recommend",
      "category": "峠・山岳",
      "description": "水府村の山中に架かる本州最大の人道吊り橋（全長375m）。眼下に竜神ダム湖を見下ろす絶景は迫力抜群。奥久慈ツーリングで袋田の滝とセットで訪れる人が多い。",
      "tags": [
        "絶景",
        "峠"
      ]
    },
    {
      "name": "涸沼",
      "lat": 36.287191,
      "lng": 140.528554,
      "address": "茨城県東茨城郡茨城町大戸",
      "source": "recommend",
      "category": "湖・川",
      "description": "茨城県内最大の自然湖でラムサール条約登録湿地。霞ヶ浦とは趣が異なる静かな湖畔道路は、朝霧の中を走るツーリングが幻想的。ヒヌマイトトンボの生息地としても有名。",
      "tags": [
        "湖",
        "絶景"
      ]
    },
    {
      "name": "波崎海岸（神栖市）",
      "lat": 34.69782,
      "lng": 135.397909,
      "address": "茨城県神栖市波崎",
      "source": "recommend",
      "category": "海岸・岬",
      "description": "利根川河口に広がる太平洋岸の砂浜海岸。海岸線を走る国道124号は、右手に太平洋・左手に鹿島灘を望む絶景ロード。鹿島灘沿いのフラットなツーリングが楽しめる。",
      "tags": [
        "海岸線",
        "絶景"
      ]
    },
    {
      "name": "鹿島神宮",
      "lat": 35.968771,
      "lng": 140.631543,
      "address": "茨城県鹿嶋市宮中2306-1",
      "source": "recommend",
      "category": "文化・歴史",
      "description": "東国最古の神社の一つで、武神として知られる。樹齢数百年の杉木立が立ち並ぶ参道は荘厳な雰囲気。太平洋岸ツーリングと組み合わせて訪れるライダーが多い。",
      "tags": [
        "文化・歴史"
      ]
    },
    {
      "name": "つくばりんりんロード",
      "lat": 36.321329,
      "lng": 140.104679,
      "address": "茨城県つくば市若栗",
      "source": "recommend",
      "category": "ツーリングロード",
      "description": "廃線跡を利用したサイクリングロードに並行して走る農道は、筑波山を正面に見ながら走れる絶好のルート。春の桜並木と菜の花の景色は関東屈指の田園風景。",
      "tags": [
        "絶景",
        "桜"
      ]
    },
    {
      "name": "道の駅 常陸大宮 かわプラザ",
      "lat": 36.597367,
      "lng": 140.40981,
      "address": "茨城県常陸大宮市田子内町2201-1",
      "source": "recommend",
      "category": "道の駅",
      "description": "久慈川のほとりに建つ道の駅。那珂川・久慈川流域の農産物が揃い、鮎の塩焼きが名物。奥久慈ツーリングの起点・終点として最適な立地でライダーに人気。",
      "tags": [
        "道の駅",
        "グルメ"
      ]
    }
  ],
  "recommendCount": 17
}