{
  "prefecture": "茨城県",
  "romaji": "ibaraki",
  "count": 17,
  "curatedCount": 17,
  "manualCount": 0,
  "spots": [
    {
      "spotId": null,
      "name": "花貫渓谷",
      "lat": 36.733175,
      "lng": 140.617876,
      "address": "茨城県高萩市中戸川",
      "imageURL": null,
      "source": "curated"
    },
    {
      "spotId": null,
      "name": "笠間稲荷神社",
      "lat": 36.385472,
      "lng": 140.254384,
      "address": "茨城県笠間市笠間1",
      "imageURL": null,
      "source": "curated"
    },
    {
      "spotId": null,
      "name": "牛久大仏",
      "lat": 35.982645,
      "lng": 140.220248,
      "address": "茨城県 牛久市",
      "imageURL": null,
      "source": "curated"
    },
    {
      "spotId": null,
      "name": "五浦海岸（六角堂）",
      "lat": 36.839289,
      "lng": 140.799801,
      "address": "茨城県北茨城市大津町五浦727-2",
      "imageURL": null,
      "source": "curated"
    },
    {
      "spotId": null,
      "name": "国営ひたち海浜公園",
      "lat": 36.402528,
      "lng": 140.594347,
      "address": "茨城県 ひたちなか市",
      "imageURL": null,
      "source": "curated"
    },
    {
      "spotId": null,
      "name": "鹿島神宮",
      "lat": 35.968771,
      "lng": 140.631543,
      "address": "茨城県鹿嶋市宮中2306-1",
      "imageURL": null,
      "source": "curated"
    },
    {
      "spotId": null,
      "name": "常陸海浜公園",
      "lat": 36.402528,
      "lng": 140.594347,
      "address": "茨城県ひたちなか市馬渡字大沼605-4",
      "imageURL": null,
      "source": "curated"
    },
    {
      "spotId": null,
      "name": "袋田の滝",
      "lat": 36.764617,
      "lng": 140.407251,
      "address": "茨城県 大子町",
      "imageURL": null,
      "source": "curated"
    },
    {
      "spotId": null,
      "name": "大洗磯前神社（大洗海岸）",
      "lat": 36.315807,
      "lng": 140.587752,
      "address": "茨城県東茨城郡大洗町磯浜町6890",
      "imageURL": null,
      "source": "curated"
    },
    {
      "spotId": null,
      "name": "道の駅 ひたちおおた",
      "lat": 36.510602,
      "lng": 140.525351,
      "address": "茨城県常陸太田市天神林町2197",
      "imageURL": null,
      "source": "curated"
    },
    {
      "spotId": null,
      "name": "道の駅 奥久慈だいご",
      "lat": 36.768564,
      "lng": 140.359037,
      "address": "茨城県久慈郡大子町池田2830-1",
      "imageURL": null,
      "source": "curated"
    },
    {
      "spotId": null,
      "name": "道の駅 常陸大宮 かわプラザ",
      "lat": 36.597367,
      "lng": 140.40981,
      "address": "茨城県常陸大宮市田子内町2201-1",
      "imageURL": null,
      "source": "curated"
    },
    {
      "spotId": null,
      "name": "日立市かみね公園展望台",
      "lat": 36.609206,
      "lng": 140.656779,
      "address": "茨城県日立市宮田町5-2-22",
      "imageURL": null,
      "source": "curated"
    },
    {
      "spotId": null,
      "name": "波崎海岸（神栖市）",
      "lat": 35.751058,
      "lng": 140.833526,
      "address": "茨城県神栖市波崎",
      "imageURL": null,
      "source": "curated"
    },
    {
      "spotId": null,
      "name": "竜神大吊橋",
      "lat": 36.683857,
      "lng": 140.465828,
      "address": "茨城県 常陸太田市",
      "imageURL": null,
      "source": "curated"
    },
    {
      "spotId": null,
      "name": "偕楽園",
      "lat": 36.375135,
      "lng": 140.453545,
      "address": "茨城県 水戸市",
      "imageURL": null,
      "source": "curated"
    },
    {
      "spotId": null,
      "name": "涸沼",
      "lat": 36.284896,
      "lng": 140.521574,
      "address": "茨城県東茨城郡茨城町大戸",
      "imageURL": null,
      "source": "curated"
    }
  ]
}
