{
  "prefecture": "石川県",
  "romaji": "ishikawa",
  "count": 23,
  "curatedCount": 6,
  "manualCount": 0,
  "spots": [
    {
      "name": "兼六園",
      "lat": 36.562427,
      "lng": 136.662355,
      "address": "石川県 金沢市",
      "source": "curated"
    },
    {
      "name": "ひがし茶屋街",
      "lat": 36.572556,
      "lng": 136.666676,
      "address": "石川県 金沢市",
      "source": "curated"
    },
    {
      "name": "千里浜なぎさドライブウェイ",
      "lat": 36.844165,
      "lng": 136.751051,
      "address": "石川県 宝達志水町",
      "source": "curated"
    },
    {
      "name": "金沢城公園",
      "lat": 36.565762,
      "lng": 136.659447,
      "address": "石川県 金沢市",
      "source": "curated"
    },
    {
      "name": "近江町市場",
      "lat": 36.572535,
      "lng": 136.655325,
      "address": "石川県 金沢市",
      "source": "curated"
    },
    {
      "name": "白米千枚田",
      "lat": 37.425699,
      "lng": 136.999029,
      "address": "石川県 輪島市",
      "source": "curated"
    },
    {
      "name": "能登金剛（巌門）",
      "lat": 37.305073,
      "lng": 137.149815,
      "address": "石川県羽咋郡志賀町富来牛下",
      "source": "recommend",
      "category": "海岸・岬",
      "description": "能登半島西岸の奇岩が連続する海食崖の景勝地。波の侵食で生まれたトンネル状の岩穴「巌門」が名物。機具岩（ヤセの断崖）も近くにあり、能登北上ルートのハイライト区間。",
      "tags": [
        "海岸線",
        "絶景"
      ]
    },
    {
      "name": "禄剛崎灯台",
      "lat": 37.528936,
      "lng": 137.326468,
      "address": "石川県珠洲市狼煙町",
      "source": "recommend",
      "category": "海岸・岬",
      "description": "能登半島の最先端・珠洲市に立つ灯台。東の海から昇る朝日と西の海に沈む夕日を同じ場所で見られる日本で唯一の岬。能登一周ツーリングの折り返し地点として多くのライダーが訪れる。",
      "tags": [
        "絶景",
        "夕日",
        "海岸線"
      ]
    },
    {
      "name": "のと里山海道（能越自動車道）",
      "lat": 36.657177,
      "lng": 136.639713,
      "address": "石川県七尾市国分町",
      "source": "recommend",
      "category": "ツーリングロード",
      "description": "金沢〜能登半島を結ぶ無料の自動車専用道。能登里山を縦断するルートは信号なしで快走でき、途中の柳田ICからは里山の風景を楽しめる。能登ツーリングの往復アクセスルートとして活用される。",
      "tags": [
        "峠"
      ]
    },
    {
      "name": "見附島（軍艦島）",
      "lat": 37.396137,
      "lng": 137.247322,
      "address": "石川県珠洲市宝立町鵜飼",
      "source": "recommend",
      "category": "海岸・岬",
      "description": "珠洲市の海岸沖に浮かぶ軍艦型の奇岩「見附島」。引き潮時には島まで歩いて渡れる。波打ち際の石畳の遊歩道と青い海のコントラストが美しく、珠洲・禄剛崎とセットで回るのが定番。",
      "tags": [
        "絶景",
        "海岸線"
      ]
    },
    {
      "name": "和倉温泉",
      "lat": 37.074912,
      "lng": 136.925694,
      "address": "石川県七尾市和倉町",
      "source": "recommend",
      "category": "温泉",
      "description": "能登半島の付け根に位置する海辺の温泉街。加賀屋を筆頭に有名旅館が集まるリゾート温泉地で、湾内に浮かぶ弁天島と海岸の眺めが美しい。能登ツーリングの宿泊拠点として最適。",
      "tags": [
        "温泉",
        "海岸線"
      ]
    },
    {
      "name": "輪島朝市",
      "lat": 37.395671,
      "lng": 136.903735,
      "address": "石川県輪島市河井町",
      "source": "recommend",
      "category": "文化・歴史",
      "description": "1,000年以上の歴史を誇る日本三大朝市の一つ。毎朝威勢のいい声が飛び交う市場で、能登の海産物や農産物が揃う。輪島塗の工房めぐりとセットで、能登半島ツーリングの定番立ち寄りスポット。",
      "tags": [
        "文化・歴史",
        "グルメ"
      ]
    },
    {
      "name": "ヤセの断崖",
      "lat": 36.857802,
      "lng": 136.831873,
      "address": "石川県羽咋郡志賀町笹波",
      "source": "recommend",
      "category": "海岸・岬",
      "description": "能登半島西側の高さ35mの断崖絶壁。松本清張の小説「ゼロの焦点」の舞台として有名。巌門から続く能登金剛沿岸の絶景を走った先にあり、能登ツーリングの西側ルートのハイライト。",
      "tags": [
        "絶景",
        "海岸線"
      ]
    },
    {
      "name": "道の駅 のと千里浜",
      "lat": 36.886067,
      "lng": 136.768666,
      "address": "石川県羽咋市千里浜町タ60",
      "source": "recommend",
      "category": "道の駅",
      "description": "千里浜なぎさドライブウェイのすぐそばに位置する道の駅。能登の海産物や農産物が揃い、なぎさドライブウェイとセットで利用するライダーが多い。能登ツーリングの最初の休憩地として最適。",
      "tags": [
        "道の駅",
        "グルメ"
      ]
    },
    {
      "name": "能登島（ツインブリッジのと）",
      "lat": 37.129588,
      "lng": 136.984117,
      "address": "石川県七尾市能登島向田町",
      "source": "recommend",
      "category": "海岸・岬",
      "description": "七尾湾に浮かぶ能登半島最大の島。ツインブリッジのとで本土と繋がり、バイクで島内一周ができる。ガラス美術館や水族館があり、静かな島の空気の中を走る島内ツーリングが楽しめる。",
      "tags": [
        "海岸線",
        "絶景"
      ]
    },
    {
      "name": "珠洲岬（聖域の岬）",
      "lat": 37.506276,
      "lng": 137.346121,
      "address": "石川県珠洲市三崎町寺家",
      "source": "recommend",
      "category": "海岸・岬",
      "description": "能登半島の最先端付近にある神秘的な岬。青の洞窟への遊覧船も出ており、禄剛崎と並ぶ珠洲のビッグスポット。断崖上のパワースポットとして知られ、能登半島最深部の秘境感が漂う。",
      "tags": [
        "絶景",
        "海岸線"
      ]
    },
    {
      "name": "加賀温泉郷（山代温泉）",
      "lat": 35.161185,
      "lng": 139.058705,
      "address": "石川県加賀市山代温泉",
      "source": "recommend",
      "category": "温泉",
      "description": "山代・山中・片山津・粟津の4つの温泉が集まる加賀温泉郷。山代温泉の古総湯は明治時代の建築を復元した趣ある共同浴場。福井・芦原温泉との間に位置し、北陸ツーリングの宿泊拠点として最適。",
      "tags": [
        "温泉"
      ]
    },
    {
      "name": "東尋坊（石川県境エリア）",
      "lat": 35.710794,
      "lng": 139.775156,
      "address": "石川県加賀市橋立町",
      "source": "recommend",
      "category": "展望台・景勝地",
      "description": "福井の名所・東尋坊に近い石川・福井県境エリアの海岸線。北陸海岸特有の荒磯と奇岩が続く風景が楽しめる。加賀から福井への海岸線ツーリングの途中で変化に富む絶景が続く。",
      "tags": [
        "海岸線",
        "絶景"
      ]
    },
    {
      "name": "道の駅 すず塩田村",
      "lat": 37.486388,
      "lng": 137.113676,
      "address": "石川県珠洲市清水町1-58-1",
      "source": "recommend",
      "category": "道の駅",
      "description": "能登の揚げ浜式塩田が見られる珠洲市の道の駅。能登の伝統的な塩作り技術が無形文化財に指定されており、塩を使った商品が揃う。禄剛崎・見附島とのセットで能登先端ツーリングの休憩地として利用される。",
      "tags": [
        "道の駅",
        "文化・歴史"
      ]
    },
    {
      "name": "白山白川郷ホワイトロード",
      "lat": 36.255488,
      "lng": 136.820344,
      "address": "石川県白山市白峰",
      "source": "recommend",
      "category": "峠・山岳",
      "description": "白山国立公園を縫う山岳道路（有料）。ブナ原生林の中を縦断し、岐阜・白川郷へ抜けるルートは石川屈指の山岳ツーリングロード。7月〜11月上旬の限定開通で、滝の展望台からの絶景が見もの。",
      "tags": [
        "峠",
        "絶景",
        "紅葉"
      ]
    },
    {
      "name": "那谷寺（加賀）",
      "lat": 36.313236,
      "lng": 136.420606,
      "address": "石川県小松市那谷町ユ122",
      "source": "recommend",
      "category": "文化・歴史",
      "description": "奇岩遊仙境と呼ばれる岩山の上に建つ古刹。白山に源流を持つ松岩の山水に佇む境内は四季折々の美しさで、特に秋の紅葉が絶品。加賀温泉郷ツーリングで立ち寄る文化スポットとして人気。",
      "tags": [
        "文化・歴史",
        "紅葉"
      ]
    },
    {
      "name": "白山スーパー林道（ホワイトロード）長滝白山神社",
      "lat": 36.51435,
      "lng": 136.565807,
      "address": "石川県白山市鶴来日詰町巳28",
      "source": "recommend",
      "category": "文化・歴史",
      "description": "白山信仰の拠点の一つ。白山を主峰とする白山比咩神社の別当寺として栄えた大社。岐阜と石川を結ぶホワイトロードのツーリングと組み合わせ、白山信仰の歴史に触れながら走れる。",
      "tags": [
        "文化・歴史"
      ]
    },
    {
      "name": "金沢21世紀美術館（金沢市内)",
      "lat": 36.560838,
      "lng": 136.65821,
      "address": "石川県金沢市広坂1-2-1",
      "source": "recommend",
      "category": "文化・歴史",
      "description": "現代アートの聖地として世界的に有名な金沢の美術館。「スイミング・プール」をはじめとする参加型アートが話題。金沢城・兼六園と並ぶ金沢観光の必訪スポットで、能登ツーリングの始点・終点に最適。",
      "tags": [
        "文化・歴史"
      ]
    }
  ],
  "recommendCount": 17
}