{
  "prefecture": "石川県",
  "romaji": "ishikawa",
  "count": 6,
  "curatedCount": 6,
  "manualCount": 0,
  "spots": [
    {
      "name": "兼六園",
      "lat": 36.562427,
      "lng": 136.662355,
      "address": "石川県 金沢市",
      "source": "curated"
    },
    {
      "name": "ひがし茶屋街",
      "lat": 36.572556,
      "lng": 136.666676,
      "address": "石川県 金沢市",
      "source": "curated"
    },
    {
      "name": "千里浜なぎさドライブウェイ",
      "lat": 36.844165,
      "lng": 136.751051,
      "address": "石川県 宝達志水町",
      "source": "curated"
    },
    {
      "name": "金沢城公園",
      "lat": 36.565762,
      "lng": 136.659447,
      "address": "石川県 金沢市",
      "source": "curated"
    },
    {
      "name": "近江町市場",
      "lat": 36.572535,
      "lng": 136.655325,
      "address": "石川県 金沢市",
      "source": "curated"
    },
    {
      "name": "白米千枚田",
      "lat": 37.425699,
      "lng": 136.999029,
      "address": "石川県 輪島市",
      "source": "curated"
    }
  ]
}
