{
  "prefecture": "石川県",
  "romaji": "ishikawa",
  "count": 17,
  "curatedCount": 17,
  "manualCount": 0,
  "spots": [
    {
      "spotId": null,
      "name": "ひがし茶屋街",
      "lat": 36.572556,
      "lng": 136.666676,
      "address": "石川県 金沢市",
      "imageURL": null,
      "source": "curated"
    },
    {
      "spotId": null,
      "name": "ヤセの断崖",
      "lat": 37.20955,
      "lng": 136.683054,
      "address": "石川県羽咋郡志賀町笹波",
      "imageURL": null,
      "source": "curated"
    },
    {
      "spotId": null,
      "name": "近江町市場",
      "lat": 36.572535,
      "lng": 136.655325,
      "address": "石川県 金沢市",
      "imageURL": null,
      "source": "curated"
    },
    {
      "spotId": null,
      "name": "金沢21世紀美術館（金沢市内)",
      "lat": 36.560838,
      "lng": 136.65821,
      "address": "石川県金沢市広坂1-2-1",
      "imageURL": null,
      "source": "curated"
    },
    {
      "spotId": null,
      "name": "金沢城公園",
      "lat": 36.565762,
      "lng": 136.659447,
      "address": "石川県 金沢市",
      "imageURL": null,
      "source": "curated"
    },
    {
      "spotId": null,
      "name": "兼六園",
      "lat": 36.562427,
      "lng": 136.662355,
      "address": "石川県 金沢市",
      "imageURL": null,
      "source": "curated"
    },
    {
      "spotId": null,
      "name": "見附島（軍艦島）",
      "lat": 37.397198,
      "lng": 137.244172,
      "address": "石川県珠洲市宝立町鵜飼",
      "imageURL": null,
      "source": "curated"
    },
    {
      "spotId": null,
      "name": "珠洲岬（聖域の岬）",
      "lat": 37.5151,
      "lng": 137.345489,
      "address": "石川県珠洲市三崎町寺家",
      "imageURL": null,
      "source": "curated"
    },
    {
      "spotId": null,
      "name": "千里浜なぎさドライブウェイ",
      "lat": 36.844165,
      "lng": 136.751051,
      "address": "石川県 宝達志水町",
      "imageURL": null,
      "source": "curated"
    },
    {
      "spotId": null,
      "name": "道の駅 すず塩田村",
      "lat": 37.486388,
      "lng": 137.113676,
      "address": "石川県珠洲市清水町1-58-1",
      "imageURL": null,
      "source": "curated"
    },
    {
      "spotId": null,
      "name": "道の駅 のと千里浜",
      "lat": 36.886067,
      "lng": 136.768666,
      "address": "石川県羽咋市千里浜町タ60",
      "imageURL": null,
      "source": "curated"
    },
    {
      "spotId": null,
      "name": "那谷寺（加賀）",
      "lat": 36.313236,
      "lng": 136.420606,
      "address": "石川県小松市那谷町ユ122",
      "imageURL": null,
      "source": "curated"
    },
    {
      "spotId": null,
      "name": "能登金剛（巌門）",
      "lat": 37.094981,
      "lng": 136.726956,
      "address": "石川県羽咋郡志賀町富来牛下",
      "imageURL": null,
      "source": "curated"
    },
    {
      "spotId": null,
      "name": "能登島（ツインブリッジのと）",
      "lat": 37.135765,
      "lng": 136.898875,
      "address": "石川県七尾市能登島向田町",
      "imageURL": null,
      "source": "curated"
    },
    {
      "spotId": null,
      "name": "白米千枚田",
      "lat": 37.425699,
      "lng": 136.999029,
      "address": "石川県 輪島市",
      "imageURL": null,
      "source": "curated"
    },
    {
      "spotId": null,
      "name": "輪島朝市",
      "lat": 37.396687,
      "lng": 136.901493,
      "address": "石川県輪島市河井町",
      "imageURL": null,
      "source": "curated"
    },
    {
      "spotId": null,
      "name": "禄剛崎灯台",
      "lat": 37.528936,
      "lng": 137.326468,
      "address": "石川県珠洲市狼煙町",
      "imageURL": null,
      "source": "curated"
    }
  ]
}
