{
  "prefecture": "熊本県",
  "romaji": "kumamoto",
  "count": 6,
  "curatedCount": 6,
  "manualCount": 0,
  "spots": [
    {
      "name": "熊本城",
      "lat": 32.805269,
      "lng": 130.705464,
      "address": "熊本県 熊本市",
      "source": "curated"
    },
    {
      "name": "草千里ヶ浜",
      "lat": 32.881466,
      "lng": 131.053547,
      "address": "熊本県 南阿蘇村",
      "source": "curated"
    },
    {
      "name": "黒川温泉",
      "lat": 33.077713,
      "lng": 131.141938,
      "address": "熊本県 南小国町",
      "source": "curated"
    },
    {
      "name": "通潤橋",
      "lat": 32.681497,
      "lng": 130.993894,
      "address": "熊本県 山都町",
      "source": "curated"
    },
    {
      "name": "鍋ヶ滝",
      "lat": 33.137686,
      "lng": 131.035323,
      "address": "熊本県 小国町",
      "source": "curated"
    },
    {
      "name": "水前寺成趣園",
      "lat": 32.790744,
      "lng": 130.734899,
      "address": "熊本県 熊本市",
      "source": "curated"
    }
  ]
}
