{
  "prefecture": "熊本県",
  "romaji": "kumamoto",
  "count": 19,
  "curatedCount": 19,
  "manualCount": 0,
  "spots": [
    {
      "spotId": null,
      "name": "やまなみハイウェイ（熊本側）",
      "lat": 33.123643,
      "lng": 131.229758,
      "address": "熊本県阿蘇郡産山村田尻",
      "imageURL": null,
      "source": "curated"
    },
    {
      "spotId": null,
      "name": "阿蘇スカイライン展望所",
      "lat": 32.999954,
      "lng": 131.018057,
      "address": "熊本県阿蘇市狩尾",
      "imageURL": null,
      "source": "curated"
    },
    {
      "spotId": null,
      "name": "阿蘇山（草千里ヶ浜）",
      "lat": 32.880371,
      "lng": 131.084114,
      "address": "熊本県阿蘇市草千里ヶ浜",
      "imageURL": null,
      "source": "curated"
    },
    {
      "spotId": null,
      "name": "菊池渓谷",
      "lat": 33.002977,
      "lng": 130.945101,
      "address": "熊本県菊池市原",
      "imageURL": null,
      "source": "curated"
    },
    {
      "spotId": null,
      "name": "久住高原（大観峰）",
      "lat": 32.998298,
      "lng": 131.070671,
      "address": "熊本県阿蘇市山田2090-8",
      "imageURL": null,
      "source": "curated"
    },
    {
      "spotId": null,
      "name": "熊本城",
      "lat": 32.805269,
      "lng": 130.705464,
      "address": "熊本県 熊本市",
      "imageURL": null,
      "source": "curated"
    },
    {
      "spotId": null,
      "name": "黒川温泉",
      "lat": 33.077713,
      "lng": 131.141938,
      "address": "熊本県 南小国町",
      "imageURL": null,
      "source": "curated"
    },
    {
      "spotId": null,
      "name": "水前寺成趣園",
      "lat": 32.790744,
      "lng": 130.734899,
      "address": "熊本県 熊本市",
      "imageURL": null,
      "source": "curated"
    },
    {
      "spotId": null,
      "name": "草千里ヶ浜",
      "lat": 32.881466,
      "lng": 131.053547,
      "address": "熊本県 南阿蘇村",
      "imageURL": null,
      "source": "curated"
    },
    {
      "spotId": null,
      "name": "通潤橋",
      "lat": 32.681497,
      "lng": 130.993894,
      "address": "熊本県 山都町",
      "imageURL": null,
      "source": "curated"
    },
    {
      "spotId": null,
      "name": "天草・御所浦白亜紀資料館",
      "lat": 32.337548,
      "lng": 130.337849,
      "address": "熊本県天草市御所浦町御所浦4310-5",
      "imageURL": null,
      "source": "curated"
    },
    {
      "spotId": null,
      "name": "天草・崎津集落",
      "lat": 32.312053,
      "lng": 130.025897,
      "address": "熊本県天草市河浦町崎津539",
      "imageURL": null,
      "source": "curated"
    },
    {
      "spotId": null,
      "name": "天草五橋",
      "lat": 32.52265,
      "lng": 130.419709,
      "address": "熊本県上天草市大矢野町",
      "imageURL": null,
      "source": "curated"
    },
    {
      "spotId": null,
      "name": "道の駅 阿蘇",
      "lat": 32.937012,
      "lng": 131.080879,
      "address": "熊本県阿蘇市黒川1440-2",
      "imageURL": null,
      "source": "curated"
    },
    {
      "spotId": null,
      "name": "道の駅 阿蘇望の郷くぎの",
      "lat": 32.818729,
      "lng": 131.041489,
      "address": "熊本県阿蘇郡南阿蘇村久石2807",
      "imageURL": null,
      "source": "curated"
    },
    {
      "spotId": null,
      "name": "道の駅 通潤橋",
      "lat": 32.68852,
      "lng": 130.99055,
      "address": "熊本県上益城郡山都町下市",
      "imageURL": null,
      "source": "curated"
    },
    {
      "spotId": null,
      "name": "鍋ヶ滝",
      "lat": 33.137686,
      "lng": 131.035323,
      "address": "熊本県 小国町",
      "imageURL": null,
      "source": "curated"
    },
    {
      "spotId": null,
      "name": "白川水源（南阿蘇）",
      "lat": 32.825437,
      "lng": 131.095304,
      "address": "熊本県阿蘇郡南阿蘇村白川",
      "imageURL": null,
      "source": "curated"
    },
    {
      "spotId": null,
      "name": "俵山峠",
      "lat": 32.854402,
      "lng": 130.982537,
      "address": "熊本県阿蘇郡南阿蘇村河陽",
      "imageURL": null,
      "source": "curated"
    }
  ]
}
