{
  "prefecture": "熊本県",
  "romaji": "kumamoto",
  "count": 23,
  "curatedCount": 6,
  "manualCount": 0,
  "spots": [
    {
      "name": "熊本城",
      "lat": 32.805269,
      "lng": 130.705464,
      "address": "熊本県 熊本市",
      "source": "curated"
    },
    {
      "name": "草千里ヶ浜",
      "lat": 32.881466,
      "lng": 131.053547,
      "address": "熊本県 南阿蘇村",
      "source": "curated"
    },
    {
      "name": "黒川温泉",
      "lat": 33.077713,
      "lng": 131.141938,
      "address": "熊本県 南小国町",
      "source": "curated"
    },
    {
      "name": "通潤橋",
      "lat": 32.681497,
      "lng": 130.993894,
      "address": "熊本県 山都町",
      "source": "curated"
    },
    {
      "name": "鍋ヶ滝",
      "lat": 33.137686,
      "lng": 131.035323,
      "address": "熊本県 小国町",
      "source": "curated"
    },
    {
      "name": "水前寺成趣園",
      "lat": 32.790744,
      "lng": 130.734899,
      "address": "熊本県 熊本市",
      "source": "curated"
    },
    {
      "name": "阿蘇山（草千里ヶ浜）",
      "lat": 32.882222,
      "lng": 131.059444,
      "address": "熊本県阿蘇市草千里ヶ浜",
      "source": "recommend",
      "category": "峠・山岳",
      "description": "世界最大級のカルデラを誇る阿蘇の中岳。草千里の広大な草原と噴煙を上げる火口の景観は圧巻で、九州ツーリング最大の目的地。",
      "tags": [
        "絶景",
        "峠",
        "高原"
      ]
    },
    {
      "name": "ミルクロード",
      "lat": 32.950556,
      "lng": 131.055,
      "address": "熊本県阿蘇市狩尾",
      "source": "recommend",
      "category": "ツーリングロード",
      "description": "阿蘇カルデラの外輪山上部を走る絶景高原道路。牧草地帯の稜線を走る爽快感は九州随一で、夕日との組み合わせが特に美しいルート。",
      "tags": [
        "絶景",
        "高原",
        "ツーリングロード"
      ]
    },
    {
      "name": "久住高原（大観峰）",
      "lat": 33.05,
      "lng": 131.083333,
      "address": "熊本県阿蘇市山田2090-8",
      "source": "recommend",
      "category": "展望台・景勝地",
      "description": "阿蘇外輪山最大の展望スポット。阿蘇五岳を一望する雄大な景観は「阿蘇のカルデラが一番よく見える場所」として九州ライダーの聖地。",
      "tags": [
        "絶景"
      ]
    },
    {
      "name": "天草・牛深ハイヤ大橋",
      "lat": 32.176944,
      "lng": 130.029722,
      "address": "熊本県天草市牛深町",
      "source": "recommend",
      "category": "ツーリングロード",
      "description": "天草最南端の漁港町・牛深に架かる優美なアーチ橋。天草西海岸の絶景ロードの終着点にあり、海を眺めながら走る天草ツーリングの締めくくり。",
      "tags": [
        "絶景",
        "海岸線"
      ]
    },
    {
      "name": "菊池渓谷",
      "lat": 33.059444,
      "lng": 130.893333,
      "address": "熊本県菊池市原",
      "source": "recommend",
      "category": "湖・川",
      "description": "阿蘇外輪山の水が集まる渓流。日本名水百選に選ばれた透明な清流と夏も涼しい木陰が続くトレッキングコースで、秋の紅葉も美しい。",
      "tags": [
        "絶景",
        "湖・川",
        "紅葉"
      ]
    },
    {
      "name": "道の駅 阿蘇",
      "lat": 32.941667,
      "lng": 131.095556,
      "address": "熊本県阿蘇市黒川1440-2",
      "source": "recommend",
      "category": "道の駅",
      "description": "阿蘇の入口に立つ賑やかな道の駅。阿蘇の赤牛バーガーや地元農産物が揃い、全国各地からライダーが集まる阿蘇ツーリングのハブ。",
      "tags": [
        "道の駅",
        "グルメ"
      ]
    },
    {
      "name": "天草五橋",
      "lat": 32.543333,
      "lng": 130.316389,
      "address": "熊本県上天草市大矢野町",
      "source": "recommend",
      "category": "ツーリングロード",
      "description": "本土と天草上島・下島を結ぶ5本の橋を渡るルート。真珠のネックレスと呼ばれる天草パールラインは九州を代表する絶景シーサイドルート。",
      "tags": [
        "絶景",
        "海岸線",
        "ツーリングロード"
      ]
    },
    {
      "name": "白川水源（南阿蘇）",
      "lat": 32.858889,
      "lng": 131.068333,
      "address": "熊本県阿蘇郡南阿蘇村白川",
      "source": "recommend",
      "category": "湖・川",
      "description": "阿蘇の伏流水が毎分60トンも湧き出す水源。水底が見えるほど澄んだ水が勢いよく湧き出す神秘的な光景は南阿蘇ツーリングの必見スポット。",
      "tags": [
        "絶景",
        "湖・川"
      ]
    },
    {
      "name": "やまなみハイウェイ（熊本側）",
      "lat": 33.003611,
      "lng": 131.183611,
      "address": "熊本県阿蘇郡産山村田尻",
      "source": "recommend",
      "category": "ツーリングロード",
      "description": "別府・由布院と阿蘇を結ぶ九州横断道路の熊本側区間。久住・牧ノ戸峠を越えて阿蘇カルデラへ下る絶景ルートはライダーに大人気。",
      "tags": [
        "峠",
        "絶景",
        "ツーリングロード"
      ]
    },
    {
      "name": "上天草・龍ヶ岳",
      "lat": 32.457222,
      "lng": 130.255278,
      "address": "熊本県上天草市龍ヶ岳町高戸",
      "source": "recommend",
      "category": "展望台・景勝地",
      "description": "天草上島の最高峰からの360度パノラマ。天草の島々と八代海・有明海が一望できる展望台は天草ツーリングの中でも特別な絶景スポット。",
      "tags": [
        "絶景"
      ]
    },
    {
      "name": "道の駅 阿蘇望の郷くぎの",
      "lat": 32.843333,
      "lng": 131.004167,
      "address": "熊本県阿蘇郡南阿蘇村久石2807",
      "source": "recommend",
      "category": "道の駅",
      "description": "阿蘇外輪山南側の久木野に立つ道の駅。温泉施設も併設され、南阿蘇・高千穂方面へのルート上で立ち寄れるオールインワンの休憩地。",
      "tags": [
        "道の駅",
        "温泉"
      ]
    },
    {
      "name": "五家荘・白崩展望台",
      "lat": 32.556389,
      "lng": 130.978889,
      "address": "熊本県八代市泉町柿迫",
      "source": "recommend",
      "category": "峠・山岳",
      "description": "五家荘・椎葉と並ぶ九州の秘境。平家の落人伝説が残る山深い集落への道は険しいが、圧巻の山岳景観が広がる上級者向けツーリングルート。",
      "tags": [
        "峠",
        "絶景"
      ]
    },
    {
      "name": "天草・崎津集落",
      "lat": 32.264444,
      "lng": 130.001111,
      "address": "熊本県天草市河浦町崎津539",
      "source": "recommend",
      "category": "文化・歴史",
      "description": "世界遺産「長崎と天草地方の潜伏キリシタン関連遺産」の構成要素。海辺に建つ天主堂と漁村の景観が融合した独特の文化的景観が広がる。",
      "tags": [
        "世界遺産",
        "歴史",
        "海岸線"
      ]
    },
    {
      "name": "俵山峠",
      "lat": 32.823889,
      "lng": 130.972778,
      "address": "熊本県阿蘇郡南阿蘇村河陽",
      "source": "recommend",
      "category": "峠・山岳",
      "description": "南阿蘇と熊本市を結ぶ峠道。2016年の地震で通行止めが続いたが復旧し、阿蘇五岳を望む絶景と急峻なカーブが続く人気の峠ルート。",
      "tags": [
        "峠",
        "絶景"
      ]
    },
    {
      "name": "不知火海（八代海）夕景",
      "lat": 32.553611,
      "lng": 130.473333,
      "address": "熊本県宇城市不知火町高良",
      "source": "recommend",
      "category": "海岸・岬",
      "description": "不知火現象で有名な浅い内海の夕景スポット。穏やかな海面に沈む夕日は幻想的で、天草ツーリングの帰り道に立ち寄りたい美景の地。",
      "tags": [
        "夕日",
        "絶景",
        "海岸線"
      ]
    },
    {
      "name": "道の駅 通潤橋",
      "lat": 32.608333,
      "lng": 131.016667,
      "address": "熊本県上益城郡山都町下市",
      "source": "recommend",
      "category": "道の駅",
      "description": "国宝に指定された通潤橋に隣接する道の駅。嘉永年間に築かれた石造アーチ水路橋は今も現役で使われ、山都町ツーリングの歴史名所。",
      "tags": [
        "道の駅",
        "歴史"
      ]
    },
    {
      "name": "天草・御所浦白亜紀資料館",
      "lat": 32.448333,
      "lng": 130.221111,
      "address": "熊本県天草市御所浦町御所浦4310-5",
      "source": "recommend",
      "category": "文化・歴史",
      "description": "恐竜の化石が多数発見された天草沖の有人島・御所浦島。島全体が自然史の宝庫として知られ、フェリーで渡るユニークな離島ツーリング先。",
      "tags": [
        "歴史",
        "観光名所"
      ]
    }
  ],
  "recommendCount": 17
}