{
  "prefecture": "新潟県",
  "romaji": "niigata",
  "count": 17,
  "curatedCount": 17,
  "manualCount": 0,
  "spots": [
    {
      "spotId": null,
      "name": "角田山・角田浜",
      "lat": 37.793915,
      "lng": 138.820324,
      "address": "新潟県新潟市西蒲区角田浜",
      "imageURL": null,
      "source": "curated"
    },
    {
      "spotId": null,
      "name": "岩船港・村上城下町",
      "lat": 38.190461,
      "lng": 139.431905,
      "address": "新潟県村上市大町",
      "imageURL": null,
      "source": "curated"
    },
    {
      "spotId": null,
      "name": "魚沼スカイライン",
      "lat": 37.037742,
      "lng": 138.796828,
      "address": "新潟県南魚沼市六日町",
      "imageURL": null,
      "source": "curated"
    },
    {
      "spotId": null,
      "name": "佐渡金山",
      "lat": 38.041717,
      "lng": 138.256102,
      "address": "新潟県 佐渡市",
      "imageURL": null,
      "source": "curated"
    },
    {
      "spotId": null,
      "name": "笹ヶ峰高原",
      "lat": 36.861635,
      "lng": 138.096402,
      "address": "新潟県妙高市杉野沢",
      "imageURL": null,
      "source": "curated"
    },
    {
      "spotId": null,
      "name": "笹川流れ",
      "lat": 38.391576,
      "lng": 139.456734,
      "address": "新潟県 村上市",
      "imageURL": null,
      "source": "curated"
    },
    {
      "spotId": null,
      "name": "寺泊・魚の市場通り",
      "lat": 37.647947,
      "lng": 138.771744,
      "address": "新潟県長岡市寺泊大町",
      "imageURL": null,
      "source": "curated"
    },
    {
      "spotId": null,
      "name": "出雲崎・良寛堂",
      "lat": 37.543727,
      "lng": 138.687855,
      "address": "新潟県三島郡出雲崎町尼瀬",
      "imageURL": null,
      "source": "curated"
    },
    {
      "spotId": null,
      "name": "星峠の棚田",
      "lat": 37.124235,
      "lng": 138.529651,
      "address": "新潟県 十日町市",
      "imageURL": null,
      "source": "curated"
    },
    {
      "spotId": null,
      "name": "清津峡",
      "lat": 36.967655,
      "lng": 138.750887,
      "address": "新潟県 十日町市",
      "imageURL": null,
      "source": "curated"
    },
    {
      "spotId": null,
      "name": "大佐渡スカイライン展望台",
      "lat": 38.074227,
      "lng": 138.305898,
      "address": "新潟県佐渡市大倉",
      "imageURL": null,
      "source": "curated"
    },
    {
      "spotId": null,
      "name": "道の駅 ちぢみの里おぢや",
      "lat": 37.304997,
      "lng": 138.822493,
      "address": "新潟県小千谷市千谷2003",
      "imageURL": null,
      "source": "curated"
    },
    {
      "spotId": null,
      "name": "道の駅 越後市振の関",
      "lat": 36.979962,
      "lng": 137.643803,
      "address": "新潟県糸魚川市外波",
      "imageURL": null,
      "source": "curated"
    },
    {
      "spotId": null,
      "name": "道の駅 親不知ピアパーク",
      "lat": 37.003238,
      "lng": 137.73006,
      "address": "新潟県糸魚川市青海",
      "imageURL": null,
      "source": "curated"
    },
    {
      "spotId": null,
      "name": "道の駅 朝日（朝日まほろば）",
      "lat": 38.283031,
      "lng": 139.52327,
      "address": "新潟県岩船郡朝日村大字千本659-2",
      "imageURL": null,
      "source": "curated"
    },
    {
      "spotId": null,
      "name": "瓢湖（白鳥の湖）",
      "lat": 37.83847,
      "lng": 139.237208,
      "address": "新潟県阿賀野市水原",
      "imageURL": null,
      "source": "curated"
    },
    {
      "spotId": null,
      "name": "弥彦神社",
      "lat": 37.710171,
      "lng": 138.809938,
      "address": "新潟県 弥彦村",
      "imageURL": null,
      "source": "curated"
    }
  ]
}
