{
  "prefecture": "新潟県",
  "romaji": "niigata",
  "count": 25,
  "curatedCount": 6,
  "manualCount": 0,
  "spots": [
    {
      "name": "弥彦神社",
      "lat": 37.70691,
      "lng": 138.826216,
      "address": "新潟県 弥彦村",
      "source": "curated"
    },
    {
      "name": "清津峡",
      "lat": 36.986338,
      "lng": 138.744153,
      "address": "新潟県 十日町市",
      "source": "curated"
    },
    {
      "name": "佐渡金山",
      "lat": 38.041717,
      "lng": 138.256102,
      "address": "新潟県 佐渡市",
      "source": "curated"
    },
    {
      "name": "星峠の棚田",
      "lat": 37.124235,
      "lng": 138.529651,
      "address": "新潟県 十日町市",
      "source": "curated"
    },
    {
      "name": "笹川流れ",
      "lat": 38.391576,
      "lng": 139.456734,
      "address": "新潟県 村上市",
      "source": "curated"
    },
    {
      "name": "苗場",
      "lat": 36.845942,
      "lng": 138.690323,
      "address": "新潟県 津南町",
      "source": "curated"
    },
    {
      "name": "弥彦山・弥彦スカイライン",
      "lat": 37.704725,
      "lng": 138.809002,
      "address": "新潟県西蒲原郡弥彦村弥彦",
      "source": "recommend",
      "category": "峠・山岳",
      "description": "越後平野に孤立する信仰の山・弥彦山（634m）。山頂へは弥彦スカイライン（旧有料道路、現無料）で登れる。頂上展望台から日本海と越後平野、佐渡島が一望できる絶景スポット。",
      "tags": [
        "峠",
        "絶景"
      ]
    },
    {
      "name": "笹ヶ峰高原",
      "lat": 37.025247,
      "lng": 138.253635,
      "address": "新潟県妙高市杉野沢",
      "source": "recommend",
      "category": "展望台・景勝地",
      "description": "妙高高原の奥地に広がる標高1,300mの高原。黒沢湿原と周囲を囲む原生林の景観が美しい。国道18号から県道39号で登るルートは、高度を上げるにつれ雄大な妙高山が姿を現す。",
      "tags": [
        "絶景",
        "峠"
      ]
    },
    {
      "name": "清津峡渓谷トンネル",
      "lat": 36.969377,
      "lng": 138.749746,
      "address": "新潟県十日町市小出",
      "source": "recommend",
      "category": "展望台・景勝地",
      "description": "日本三大渓谷美の一つ。独特のパノラマステーション（フォトジェニックスポット）がSNSで話題になり大人気。十日町から走るルートは飯山方面とも組み合わせやすい山間ルート。",
      "tags": [
        "絶景"
      ]
    },
    {
      "name": "日本海夕日ライン（国道8号・北陸道）",
      "lat": 37.37191,
      "lng": 138.559141,
      "address": "新潟県柏崎市",
      "source": "recommend",
      "category": "ツーリングロード",
      "description": "新潟〜直江津を結ぶ国道8号の日本海岸区間は、夕方に日本海に沈む夕日が絶景。特に柏崎〜上越間の海岸ルートは波打ち際を走るような開放感があり、北陸ツーリングの定番コース。",
      "tags": [
        "海岸線",
        "夕日",
        "絶景"
      ]
    },
    {
      "name": "佐渡島（大野亀・二ツ亀）",
      "lat": 38.067319,
      "lng": 138.351443,
      "address": "新潟県佐渡市大倉",
      "source": "recommend",
      "category": "海岸・岬",
      "description": "フェリーで渡れる日本最大の離島。島北端の大野亀はカンゾウの群生地で有名で、奇岩の二ツ亀も絶景。島内一周約200kmのツーリングは変化に富む海岸線と山岳ルートが楽しめる。",
      "tags": [
        "海岸線",
        "絶景"
      ]
    },
    {
      "name": "苗場山・田代湖（苗場高原）",
      "lat": 36.845942,
      "lng": 138.690323,
      "address": "新潟県南魚沼郡湯沢町三国",
      "source": "recommend",
      "category": "峠・山岳",
      "description": "スキーリゾートで有名な苗場高原。夏〜秋のシーズンは苗場プリンスホテル周辺の山岳ルートをバイクで走れる。三国峠を越えた群馬側からのアクセスルートもスリリングで人気。",
      "tags": [
        "峠",
        "絶景"
      ]
    },
    {
      "name": "道の駅 越後市振の関",
      "lat": 36.979962,
      "lng": 137.643803,
      "address": "新潟県糸魚川市外波",
      "source": "recommend",
      "category": "道の駅",
      "description": "富山との県境に位置する道の駅。市振の関所跡と海岸沿いの立地で、日本海を眺めながら休憩できる。松尾芭蕉の奥の細道ゆかりの地でもあり、北陸ツーリングの新潟最後の休憩地として最適。",
      "tags": [
        "道の駅",
        "海岸線"
      ]
    },
    {
      "name": "粟ヶ岳・七谷地区（加茂市）",
      "lat": 37.555226,
      "lng": 139.188737,
      "address": "新潟県加茂市七谷",
      "source": "recommend",
      "category": "峠・山岳",
      "description": "越後丘陵を走る県道栃尾加茂線は棚田と山間集落の風景が美しい。新潟の里山ツーリングとして農道と峠が組み合わさった地道なルート。粟ヶ岳への登山口近くでは山岳風景も楽しめる。",
      "tags": [
        "峠"
      ]
    },
    {
      "name": "親不知海岸",
      "lat": 34.547344,
      "lng": 134.270386,
      "address": "新潟県糸魚川市青海",
      "source": "recommend",
      "category": "海岸・岬",
      "description": "険しい断崖が日本海に迫る北陸道最大の難所。旧道（天険親不知）の区間は国道8号の旧ルートで走れる所があり、断崖と荒波の迫力ある風景が体験できる。糸魚川から富山への必経スポット。",
      "tags": [
        "海岸線",
        "絶景"
      ]
    },
    {
      "name": "魚沼スカイライン",
      "lat": 37.065572,
      "lng": 138.876099,
      "address": "新潟県南魚沼市六日町",
      "source": "recommend",
      "category": "ツーリングロード",
      "description": "六日町から越後三山を展望しながら走る尾根道（県道233号）。標高700〜900mの稜線を走る快走路は越後平野と山岳のコントラストが素晴らしい。新潟ライダーに人気の地元ルート。",
      "tags": [
        "峠",
        "絶景"
      ]
    },
    {
      "name": "越後妻有大地の芸術祭エリア（十日町）",
      "lat": 37.134573,
      "lng": 138.756246,
      "address": "新潟県十日町市松代",
      "source": "recommend",
      "category": "文化・歴史",
      "description": "3年に一度開催される世界最大の国際野外芸術祭の会場となる里山エリア。棚田と集落の中にアート作品が点在し、農道ツーリングをしながらアートに出会える独特の体験ができる。",
      "tags": [
        "文化・歴史",
        "絶景"
      ]
    },
    {
      "name": "道の駅 ちぢみの里おぢや",
      "lat": 37.3052,
      "lng": 138.7826,
      "address": "新潟県小千谷市千谷2003",
      "source": "recommend",
      "category": "道の駅",
      "description": "小千谷縮の産地・小千谷の道の駅。錦鯉の展示水槽が名物で、地元農産物も充実。関越道小千谷インターに近く、魚沼・十日町方面の起点として便利なアクセス拠点。",
      "tags": [
        "道の駅",
        "グルメ"
      ]
    },
    {
      "name": "寺泊・魚の市場通り",
      "lat": 37.620394,
      "lng": 138.813824,
      "address": "新潟県長岡市寺泊大町",
      "source": "recommend",
      "category": "海岸・岬",
      "description": "日本海の海の幸を売る魚屋が軒を連ねる「魚のアメ横」として有名な寺泊港。蟹や鮮魚が格安で購入でき、日本海ツーリングの食事スポットとして絶大な人気。夕日の絶景も見事。",
      "tags": [
        "グルメ",
        "海岸線",
        "夕日"
      ]
    },
    {
      "name": "瓢湖（白鳥の湖）",
      "lat": 37.83847,
      "lng": 139.237208,
      "address": "新潟県阿賀野市水原",
      "source": "recommend",
      "category": "湖・川",
      "description": "毎年秋に数千羽のハクチョウが飛来することで有名な湖。水鳥の楽園として国指定鳥獣保護区。阿賀野市の平野部にあり、越後平野の里山ツーリングで立ち寄れる癒しスポット。",
      "tags": [
        "湖"
      ]
    },
    {
      "name": "出雲崎・良寛堂",
      "lat": 37.531531,
      "lng": 138.716067,
      "address": "新潟県三島郡出雲崎町尼瀬",
      "source": "recommend",
      "category": "文化・歴史",
      "description": "江戸時代の天領の港町・出雲崎は良寛生誕地として知られる。海岸沿いの妻入りの古い街並みと日本海の夕日が美しい。越後海岸線ツーリングの中間休憩地として風情ある場所。",
      "tags": [
        "文化・歴史",
        "夕日"
      ]
    },
    {
      "name": "角田山・角田浜",
      "lat": 37.78046,
      "lng": 138.836986,
      "address": "新潟県新潟市西蒲区角田浜",
      "source": "recommend",
      "category": "海岸・岬",
      "description": "越後平野の西端に位置する海岸線の山。角田浜の砂浜と日本海の眺めが素晴らしく、弥彦山との組み合わせで越後海岸ツーリングの定番コースを構成。夕日のシルエットが絶景。",
      "tags": [
        "海岸線",
        "夕日",
        "絶景"
      ]
    },
    {
      "name": "道の駅 朝日（朝日まほろば）",
      "lat": 38.283031,
      "lng": 139.52327,
      "address": "新潟県岩船郡朝日村大字千本659-2",
      "source": "recommend",
      "category": "道の駅",
      "description": "村上から北に向かう国道7号沿いの道の駅。朝日連峰の麓に位置し、地元の農産物と温泉が揃う。山形との県境に近く、村上から鶴岡への日本海沿岸ルートの休憩地として便利。",
      "tags": [
        "道の駅",
        "温泉"
      ]
    },
    {
      "name": "守門岳・大白川周辺",
      "lat": 37.397765,
      "lng": 139.136578,
      "address": "新潟県魚沼市大白川",
      "source": "recommend",
      "category": "峠・山岳",
      "description": "新潟県内最高峰エリアの一つ・守門岳への麓を走る国道252号。只見線沿いの山岳ルートは福島へ続く秘境感たっぷりの道で、只見川の渓谷美と雄大な山岳風景が楽しめる。",
      "tags": [
        "峠",
        "絶景"
      ]
    },
    {
      "name": "岩船港・村上城下町",
      "lat": 38.190461,
      "lng": 139.431905,
      "address": "新潟県村上市大町",
      "source": "recommend",
      "category": "文化・歴史",
      "description": "日本一のお茶の産地として知られる村上市の城下町。鮭の加工品と村上茶が名産。岩船港の新鮮な海の幸と歴史的な町並みを楽しめ、山形方面へのツーリングの拠点としても最適。",
      "tags": [
        "文化・歴史",
        "グルメ"
      ]
    }
  ],
  "recommendCount": 19
}