{
  "prefecture": "新潟県",
  "romaji": "niigata",
  "count": 6,
  "curatedCount": 6,
  "manualCount": 0,
  "spots": [
    {
      "name": "弥彦神社",
      "lat": 37.70691,
      "lng": 138.826216,
      "address": "新潟県 弥彦村",
      "source": "curated"
    },
    {
      "name": "清津峡",
      "lat": 36.986338,
      "lng": 138.744153,
      "address": "新潟県 十日町市",
      "source": "curated"
    },
    {
      "name": "佐渡金山",
      "lat": 38.041717,
      "lng": 138.256102,
      "address": "新潟県 佐渡市",
      "source": "curated"
    },
    {
      "name": "星峠の棚田",
      "lat": 37.124235,
      "lng": 138.529651,
      "address": "新潟県 十日町市",
      "source": "curated"
    },
    {
      "name": "笹川流れ",
      "lat": 38.391576,
      "lng": 139.456734,
      "address": "新潟県 村上市",
      "source": "curated"
    },
    {
      "name": "苗場",
      "lat": 36.845942,
      "lng": 138.690323,
      "address": "新潟県 津南町",
      "source": "curated"
    }
  ]
}
