{
  "prefecture": "沖縄県",
  "romaji": "okinawa",
  "count": 19,
  "curatedCount": 19,
  "manualCount": 0,
  "spots": [
    {
      "spotId": null,
      "name": "ニライカナイ橋",
      "lat": 26.167263,
      "lng": 127.815113,
      "address": "沖縄県南城市知念字久原",
      "imageURL": null,
      "source": "curated"
    },
    {
      "spotId": null,
      "name": "嘉手納基地展望台（道の駅かでな）",
      "lat": 26.36795,
      "lng": 127.774251,
      "address": "沖縄県中頭郡嘉手納町屋良1026-3",
      "imageURL": null,
      "source": "curated"
    },
    {
      "spotId": null,
      "name": "海の駅 あやはし館",
      "lat": 26.332461,
      "lng": 127.929118,
      "address": "沖縄県うるま市与那城屋平",
      "imageURL": null,
      "source": "curated"
    },
    {
      "spotId": null,
      "name": "古宇利大橋",
      "lat": 26.67883,
      "lng": 128.012609,
      "address": "沖縄県 名護市",
      "imageURL": null,
      "source": "curated"
    },
    {
      "spotId": null,
      "name": "国際通り",
      "lat": 26.216208,
      "lng": 127.687998,
      "address": "沖縄県 那覇市",
      "imageURL": null,
      "source": "curated"
    },
    {
      "spotId": null,
      "name": "今帰仁城跡",
      "lat": 26.691491,
      "lng": 127.929108,
      "address": "沖縄県国頭郡今帰仁村今泊5101",
      "imageURL": null,
      "source": "curated"
    },
    {
      "spotId": null,
      "name": "座間味島（阿佐の海岸）",
      "lat": 26.228374,
      "lng": 127.283049,
      "address": "沖縄県島尻郡座間味村",
      "imageURL": null,
      "source": "curated"
    },
    {
      "spotId": null,
      "name": "斎場御嶽",
      "lat": 26.172358,
      "lng": 127.826373,
      "address": "沖縄県 南城市",
      "imageURL": null,
      "source": "curated"
    },
    {
      "spotId": null,
      "name": "残波岬",
      "lat": 26.441066,
      "lng": 127.713747,
      "address": "沖縄県中頭郡読谷村宇座",
      "imageURL": null,
      "source": "curated"
    },
    {
      "spotId": null,
      "name": "首里城",
      "lat": 26.217001,
      "lng": 127.719373,
      "address": "沖縄県 那覇市",
      "imageURL": null,
      "source": "curated"
    },
    {
      "spotId": null,
      "name": "勝連城跡",
      "lat": 26.330499,
      "lng": 127.878971,
      "address": "沖縄県うるま市勝連南風原3807-2",
      "imageURL": null,
      "source": "curated"
    },
    {
      "spotId": null,
      "name": "石垣島・川平湾",
      "lat": 24.460432,
      "lng": 124.142761,
      "address": "沖縄県石垣市川平934",
      "imageURL": null,
      "source": "curated"
    },
    {
      "spotId": null,
      "name": "道の駅 いとまん",
      "lat": 26.138319,
      "lng": 127.661548,
      "address": "沖縄県糸満市西崎町4丁目16-4",
      "imageURL": null,
      "source": "curated"
    },
    {
      "spotId": null,
      "name": "道の駅 許田",
      "lat": 26.552133,
      "lng": 127.969515,
      "address": "沖縄県名護市字許田17-1",
      "imageURL": null,
      "source": "curated"
    },
    {
      "spotId": null,
      "name": "美ら海水族館",
      "lat": 26.694369,
      "lng": 127.878038,
      "address": "沖縄県 本部町",
      "imageURL": null,
      "source": "curated"
    },
    {
      "spotId": null,
      "name": "平和祈念公園（糸満市）",
      "lat": 26.095601,
      "lng": 127.723727,
      "address": "沖縄県糸満市摩文仁444",
      "imageURL": null,
      "source": "curated"
    },
    {
      "spotId": null,
      "name": "辺戸岬",
      "lat": 26.872545,
      "lng": 128.264437,
      "address": "沖縄県国頭郡国頭村辺戸",
      "imageURL": null,
      "source": "curated"
    },
    {
      "spotId": null,
      "name": "万座毛",
      "lat": 26.505009,
      "lng": 127.850256,
      "address": "沖縄県 恩納村",
      "imageURL": null,
      "source": "curated"
    },
    {
      "spotId": null,
      "name": "与那国島（日本最西端の碑）",
      "lat": 24.449806,
      "lng": 122.934265,
      "address": "沖縄県八重山郡与那国町与那国",
      "imageURL": null,
      "source": "curated"
    }
  ]
}
