{
  "prefecture": "沖縄県",
  "romaji": "okinawa",
  "count": 6,
  "curatedCount": 6,
  "manualCount": 0,
  "spots": [
    {
      "name": "首里城",
      "lat": 26.217001,
      "lng": 127.719373,
      "address": "沖縄県 那覇市",
      "source": "curated"
    },
    {
      "name": "美ら海水族館",
      "lat": 26.694369,
      "lng": 127.878038,
      "address": "沖縄県 本部町",
      "source": "curated"
    },
    {
      "name": "万座毛",
      "lat": 26.505009,
      "lng": 127.850256,
      "address": "沖縄県 恩納村",
      "source": "curated"
    },
    {
      "name": "古宇利大橋",
      "lat": 26.685982,
      "lng": 128.016945,
      "address": "沖縄県 名護市",
      "source": "curated"
    },
    {
      "name": "国際通り",
      "lat": 26.216905,
      "lng": 127.690108,
      "address": "沖縄県 那覇市",
      "source": "curated"
    },
    {
      "name": "斎場御嶽",
      "lat": 26.172358,
      "lng": 127.826373,
      "address": "沖縄県 南城市",
      "source": "curated"
    }
  ]
}
