{
  "prefecture": "沖縄県",
  "romaji": "okinawa",
  "count": 23,
  "curatedCount": 6,
  "manualCount": 0,
  "spots": [
    {
      "name": "首里城",
      "lat": 26.217001,
      "lng": 127.719373,
      "address": "沖縄県 那覇市",
      "source": "curated"
    },
    {
      "name": "美ら海水族館",
      "lat": 26.694369,
      "lng": 127.878038,
      "address": "沖縄県 本部町",
      "source": "curated"
    },
    {
      "name": "万座毛",
      "lat": 26.505009,
      "lng": 127.850256,
      "address": "沖縄県 恩納村",
      "source": "curated"
    },
    {
      "name": "古宇利大橋",
      "lat": 26.685982,
      "lng": 128.016945,
      "address": "沖縄県 名護市",
      "source": "curated"
    },
    {
      "name": "国際通り",
      "lat": 26.216905,
      "lng": 127.690108,
      "address": "沖縄県 那覇市",
      "source": "curated"
    },
    {
      "name": "斎場御嶽",
      "lat": 26.172358,
      "lng": 127.826373,
      "address": "沖縄県 南城市",
      "source": "curated"
    },
    {
      "name": "辺戸岬",
      "lat": 26.871971,
      "lng": 128.265638,
      "address": "沖縄県国頭郡国頭村辺戸",
      "source": "recommend",
      "category": "海岸・岬",
      "description": "沖縄本島最北端の岬。断崖から望む東シナ海と太平洋が出合うパノラマは圧巻で、やんばる国立公園の大自然の中にある本島北端制覇の目的地。",
      "tags": [
        "絶景",
        "海岸線"
      ]
    },
    {
      "name": "古宇利島（古宇利大橋）",
      "lat": 26.704251,
      "lng": 128.018085,
      "address": "沖縄県国頭郡今帰仁村古宇利",
      "source": "recommend",
      "category": "ツーリングロード",
      "description": "今帰仁村・屋我地島から古宇利島へ渡る絶景橋。エメラルドグリーンの海の上を走る橋とハート岩で知られる人気の沖縄ツーリングスポット。",
      "tags": [
        "絶景",
        "海岸線",
        "ツーリングロード"
      ]
    },
    {
      "name": "残波岬",
      "lat": 26.440496,
      "lng": 127.711919,
      "address": "沖縄県中頭郡読谷村宇座",
      "source": "recommend",
      "category": "海岸・岬",
      "description": "沖縄本島西海岸の最北端の岬。高さ30mの断崖が2kmにわたって続き、白亜の灯台と荒々しい海の景観は夕日の名所としても有名。",
      "tags": [
        "絶景",
        "海岸線",
        "夕日"
      ]
    },
    {
      "name": "国頭村・やんばる",
      "lat": 26.745753,
      "lng": 128.178289,
      "address": "沖縄県国頭郡国頭村",
      "source": "recommend",
      "category": "ツーリングロード",
      "description": "沖縄本島北部の亜熱帯原生林地帯。ヤンバルクイナなど固有種が生息する世界自然遺産の森を縫うように走る国道58号は緑の絶景ルート。",
      "tags": [
        "世界遺産",
        "絶景",
        "ツーリングロード"
      ]
    },
    {
      "name": "道の駅 許田",
      "lat": 26.552133,
      "lng": 127.969515,
      "address": "沖縄県名護市字許田17-1",
      "source": "recommend",
      "category": "道の駅",
      "description": "沖縄自動車道の許田ICそばに立つ沖縄最大の道の駅。地元の農水産物・土産物が充実し、やんばる・北部エリアへのツーリングの起点として最適。",
      "tags": [
        "道の駅",
        "グルメ"
      ]
    },
    {
      "name": "美ら海水族館（海洋博公園）",
      "lat": 26.694369,
      "lng": 127.878038,
      "address": "沖縄県国頭郡本部町字石川424",
      "source": "recommend",
      "category": "文化・歴史",
      "description": "世界最大級の水族館を含む大型テーマパーク。大きなジンベイザメが泳ぐ巨大水槽は圧巻で、本部半島ツーリングの核心的観光スポット。",
      "tags": [
        "観光名所"
      ]
    },
    {
      "name": "今帰仁城跡",
      "lat": 26.691491,
      "lng": 127.929108,
      "address": "沖縄県国頭郡今帰仁村今泊5101",
      "source": "recommend",
      "category": "文化・歴史",
      "description": "世界遺産の城跡。琉球統一以前に北山王が治めた城の石垣は迫力があり、桜の名所としても有名。古宇利島とセットで走る本部半島ルートの名所。",
      "tags": [
        "世界遺産",
        "歴史",
        "桜"
      ]
    },
    {
      "name": "ニライカナイ橋",
      "lat": 26.167063,
      "lng": 127.812567,
      "address": "沖縄県南城市知念字久原",
      "source": "recommend",
      "category": "展望台・景勝地",
      "description": "南部エリアの高台から那覇方面へ下るS字カーブの橋。太平洋を見渡しながら駆け下りる爽快感は沖縄南部ツーリングの最大のハイライト。",
      "tags": [
        "絶景",
        "ツーリングロード"
      ]
    },
    {
      "name": "座間味島（阿佐の海岸）",
      "lat": 26.234955,
      "lng": 127.301912,
      "address": "沖縄県島尻郡座間味村",
      "source": "recommend",
      "category": "海岸・岬",
      "description": "那覇からフェリーで1時間の慶良間諸島の島。世界屈指の透明度の海に囲まれた離島ツーリングで、阿佐海岸の白砂青海の景観は別格。",
      "tags": [
        "絶景",
        "海岸線"
      ]
    },
    {
      "name": "平和祈念公園（糸満市）",
      "lat": 26.095601,
      "lng": 127.723727,
      "address": "沖縄県糸満市摩文仁444",
      "source": "recommend",
      "category": "文化・歴史",
      "description": "沖縄戦終焉の地に立つ公園。平和の礎と呼ばれる20万名以上の刻銘板と平和記念資料館から、沖縄戦の歴史と平和の重みを学べる必訪の地。",
      "tags": [
        "歴史",
        "観光名所"
      ]
    },
    {
      "name": "嘉手納基地展望台（道の駅かでな）",
      "lat": 26.358611,
      "lng": 127.752222,
      "address": "沖縄県中頭郡嘉手納町屋良1026-3",
      "source": "recommend",
      "category": "展望台・景勝地",
      "description": "アジア最大の米空軍基地を見渡せる展望道の駅。軍用機の離着陸を間近に観察できるユニークなスポットで、安保問題を現地で感じる場所。",
      "tags": [
        "道の駅",
        "観光名所"
      ]
    },
    {
      "name": "勝連城跡",
      "lat": 26.330879,
      "lng": 127.881008,
      "address": "沖縄県うるま市勝連南風原3807-2",
      "source": "recommend",
      "category": "文化・歴史",
      "description": "世界遺産の琉球城跡。うるま市の丘の上に立つ石垣遺構からは太平洋と島々が一望でき、沖縄中部ツーリングで訪れたい歴史絶景スポット。",
      "tags": [
        "世界遺産",
        "歴史",
        "絶景"
      ]
    },
    {
      "name": "海中道路（浜比嘉島へ）",
      "lat": 26.335928,
      "lng": 127.93971,
      "address": "沖縄県うるま市与那城屋平",
      "source": "recommend",
      "category": "ツーリングロード",
      "description": "うるま市から離島群へ伸びる全長4.75kmの海中道路。浅瀬の海の上を走る爽快感が最高で、橋と島を渡り継ぐ沖縄中部の人気シーサイドルート。",
      "tags": [
        "絶景",
        "海岸線",
        "ツーリングロード"
      ]
    },
    {
      "name": "石垣島・川平湾",
      "lat": 24.471017,
      "lng": 124.238506,
      "address": "沖縄県石垣市川平934",
      "source": "recommend",
      "category": "海岸・岬",
      "description": "日本百景に選ばれた八重山の絶景湾。グラスボートから見える多彩なサンゴと熱帯魚の世界は息をのむ美しさ。フェリーで渡る南西諸島ツーリングの頂点。",
      "tags": [
        "絶景",
        "海岸線"
      ]
    },
    {
      "name": "名護・屋我地島（運天港）",
      "lat": 26.587951,
      "lng": 127.9954,
      "address": "沖縄県名護市字我部祖河",
      "source": "recommend",
      "category": "海岸・岬",
      "description": "羽地内海に突き出した屋我地島の港。古宇利大橋・屋我地島橋とつながる離島連絡ルートの拠点で、運天港からは今帰仁・古宇利の全景が見渡せる。",
      "tags": [
        "海岸線",
        "絶景"
      ]
    },
    {
      "name": "道の駅 いとまん",
      "lat": 26.138319,
      "lng": 127.661548,
      "address": "沖縄県糸満市西崎町4丁目16-4",
      "source": "recommend",
      "category": "道の駅",
      "description": "糸満市の南部に立つ観光拠点の道の駅。沖縄本島南部の特産品と新鮮な魚介が揃い、平和祈念公園・喜屋武岬を巡る南部ツーリングの補給地点。",
      "tags": [
        "道の駅",
        "グルメ"
      ]
    },
    {
      "name": "与那国島（日本最西端の碑）",
      "lat": 24.455595,
      "lng": 122.987606,
      "address": "沖縄県八重山郡与那国町与那国",
      "source": "recommend",
      "category": "海岸・岬",
      "description": "日本最西端の島。石垣島から飛行機またはフェリーで渡り、日本最西端制覇を目指すライダーが全国から訪れる離島ツーリングの聖地。",
      "tags": [
        "絶景",
        "海岸線"
      ]
    }
  ],
  "recommendCount": 17
}