{
  "prefecture": "滋賀県",
  "romaji": "shiga",
  "count": 19,
  "curatedCount": 19,
  "manualCount": 0,
  "spots": [
    {
      "spotId": null,
      "name": "メタセコイア並木",
      "lat": 35.487511,
      "lng": 136.037178,
      "address": "滋賀県 高島市",
      "imageURL": null,
      "source": "curated"
    },
    {
      "spotId": null,
      "name": "安土城跡",
      "lat": 35.155862,
      "lng": 136.139322,
      "address": "滋賀県近江八幡市安土町下豊浦6367",
      "imageURL": null,
      "source": "curated"
    },
    {
      "spotId": null,
      "name": "伊吹山ドライブウェイ",
      "lat": 35.40843,
      "lng": 136.422772,
      "address": "滋賀県米原市上板並伊吹山ドライブウェイ",
      "imageURL": null,
      "source": "curated"
    },
    {
      "spotId": null,
      "name": "永源寺",
      "lat": 35.080585,
      "lng": 136.319993,
      "address": "滋賀県東近江市永源寺高野町41",
      "imageURL": null,
      "source": "curated"
    },
    {
      "spotId": null,
      "name": "奥琵琶湖（つづら尾崎展望台）",
      "lat": 35.453399,
      "lng": 136.148071,
      "address": "滋賀県長浜市西浅井町菅浦つづら尾崎",
      "imageURL": null,
      "source": "curated"
    },
    {
      "spotId": null,
      "name": "近江八幡・八幡堀",
      "lat": 35.139774,
      "lng": 136.089878,
      "address": "滋賀県近江八幡市宮内町",
      "imageURL": null,
      "source": "curated"
    },
    {
      "spotId": null,
      "name": "黒壁スクエア",
      "lat": 35.380653,
      "lng": 136.267033,
      "address": "滋賀県長浜市公園町10-10",
      "imageURL": null,
      "source": "curated"
    },
    {
      "spotId": null,
      "name": "三井寺",
      "lat": 35.013061,
      "lng": 135.859564,
      "address": "滋賀県 大津市",
      "imageURL": null,
      "source": "curated"
    },
    {
      "spotId": null,
      "name": "信楽（陶芸の森）",
      "lat": 34.876886,
      "lng": 136.061017,
      "address": "滋賀県甲賀市信楽町勅旨2188-7",
      "imageURL": null,
      "source": "curated"
    },
    {
      "spotId": null,
      "name": "草津・烏丸半島",
      "lat": 35.07345,
      "lng": 135.936289,
      "address": "滋賀県草津市下物町烏丸半島",
      "imageURL": null,
      "source": "curated"
    },
    {
      "spotId": null,
      "name": "多賀大社",
      "lat": 35.225378,
      "lng": 136.290472,
      "address": "滋賀県犬上郡多賀町多賀604",
      "imageURL": null,
      "source": "curated"
    },
    {
      "spotId": null,
      "name": "道の駅 びわ湖大橋 米プラザ",
      "lat": 35.124472,
      "lng": 135.927916,
      "address": "滋賀県守山市今浜町琵琶湖大橋",
      "imageURL": null,
      "source": "curated"
    },
    {
      "spotId": null,
      "name": "道の駅 塩津海道あぢかまの里",
      "lat": 35.520824,
      "lng": 136.162946,
      "address": "滋賀県長浜市西浅井町塩津浜1765",
      "imageURL": null,
      "source": "curated"
    },
    {
      "spotId": null,
      "name": "道の駅 妹子の郷",
      "lat": 35.159641,
      "lng": 135.901423,
      "address": "滋賀県大津市和邇中浜1-2",
      "imageURL": null,
      "source": "curated"
    },
    {
      "spotId": null,
      "name": "白鬚神社",
      "lat": 35.274579,
      "lng": 136.011135,
      "address": "滋賀県 高島市",
      "imageURL": null,
      "source": "curated"
    },
    {
      "spotId": null,
      "name": "比叡山ドライブウェイ",
      "lat": 35.0515,
      "lng": 135.839252,
      "address": "滋賀県大津市坂本本町4220",
      "imageURL": null,
      "source": "curated"
    },
    {
      "spotId": null,
      "name": "比叡山延暦寺",
      "lat": 35.071036,
      "lng": 135.865584,
      "address": "滋賀県 大津市",
      "imageURL": null,
      "source": "curated"
    },
    {
      "spotId": null,
      "name": "彦根城",
      "lat": 35.277101,
      "lng": 136.251717,
      "address": "滋賀県 彦根市",
      "imageURL": null,
      "source": "curated"
    },
    {
      "spotId": null,
      "name": "鈴鹿スカイライン（国道477号）",
      "lat": 35.013127,
      "lng": 136.425862,
      "address": "滋賀県甲賀市土山町山女原",
      "imageURL": null,
      "source": "curated"
    }
  ]
}
