{
  "prefecture": "滋賀県",
  "romaji": "shiga",
  "count": 5,
  "curatedCount": 5,
  "manualCount": 0,
  "spots": [
    {
      "name": "彦根城",
      "lat": 35.277101,
      "lng": 136.251717,
      "address": "滋賀県 彦根市",
      "source": "curated"
    },
    {
      "name": "白鬚神社",
      "lat": 35.274579,
      "lng": 136.011135,
      "address": "滋賀県 高島市",
      "source": "curated"
    },
    {
      "name": "メタセコイア並木",
      "lat": 35.46682,
      "lng": 136.035876,
      "address": "滋賀県 高島市",
      "source": "curated"
    },
    {
      "name": "比叡山延暦寺",
      "lat": 35.071036,
      "lng": 135.865584,
      "address": "滋賀県 大津市",
      "source": "curated"
    },
    {
      "name": "三井寺",
      "lat": 35.013061,
      "lng": 135.859564,
      "address": "滋賀県 大津市",
      "source": "curated"
    }
  ]
}
