{
  "prefecture": "滋賀県",
  "romaji": "shiga",
  "count": 24,
  "curatedCount": 5,
  "manualCount": 0,
  "spots": [
    {
      "name": "彦根城",
      "lat": 35.277101,
      "lng": 136.251717,
      "address": "滋賀県 彦根市",
      "source": "curated"
    },
    {
      "name": "白鬚神社",
      "lat": 35.274579,
      "lng": 136.011135,
      "address": "滋賀県 高島市",
      "source": "curated"
    },
    {
      "name": "メタセコイア並木",
      "lat": 35.46682,
      "lng": 136.035876,
      "address": "滋賀県 高島市",
      "source": "curated"
    },
    {
      "name": "比叡山延暦寺",
      "lat": 35.071036,
      "lng": 135.865584,
      "address": "滋賀県 大津市",
      "source": "curated"
    },
    {
      "name": "三井寺",
      "lat": 35.013061,
      "lng": 135.859564,
      "address": "滋賀県 大津市",
      "source": "curated"
    },
    {
      "name": "琵琶湖西岸（湖西道路）",
      "lat": 35.3225,
      "lng": 136.0503,
      "address": "滋賀県高島市安曇川",
      "source": "recommend",
      "category": "ツーリングロード",
      "description": "琵琶湖西岸を縦断する国道161号沿いのルート。日本最大の湖・琵琶湖を左手に見ながら北上する爽快なルートで、比良山系を背景にした湖の眺望が美しい。",
      "tags": [
        "湖",
        "絶景",
        "海岸線"
      ]
    },
    {
      "name": "比叡山ドライブウェイ",
      "lat": 35.0901,
      "lng": 135.8416,
      "address": "滋賀県大津市坂本本町4220",
      "source": "recommend",
      "category": "峠・山岳",
      "description": "比叡山（標高848m）を縦走する有料ドライブウェイ。京都と滋賀を結ぶ山岳ルートで、山上からは琵琶湖と京都市街を同時に望める絶景が楽しめる。",
      "tags": [
        "峠",
        "絶景",
        "歴史"
      ]
    },
    {
      "name": "鈴鹿スカイライン（国道477号）",
      "lat": 35.0082,
      "lng": 136.3818,
      "address": "滋賀県甲賀市土山町山女原",
      "source": "recommend",
      "category": "峠・山岳",
      "description": "鈴鹿山系を横断する滋賀・三重県境の山岳道路。武平峠（標高895m）付近は急カーブが続く本格的な峠道で、御在所岳や鈴鹿の山並みを間近に見るルート。",
      "tags": [
        "峠",
        "絶景",
        "紅葉"
      ]
    },
    {
      "name": "竹生島",
      "lat": 35.4523,
      "lng": 136.125,
      "address": "滋賀県長浜市早崎町竹生島",
      "source": "recommend",
      "category": "文化・歴史",
      "description": "琵琶湖に浮かぶ孤島に建つ宝厳寺・都久夫須麻神社の聖域。フェリーで渡る湖上の寺社は神秘的な雰囲気に満ち、長浜港からの湖上クルーズはツーリングの特別体験。",
      "tags": [
        "歴史",
        "文化財",
        "湖"
      ]
    },
    {
      "name": "長浜城と黒壁スクエア",
      "lat": 35.3685,
      "lng": 136.2678,
      "address": "滋賀県長浜市公園町10-10",
      "source": "recommend",
      "category": "文化・歴史",
      "description": "豊臣秀吉ゆかりの長浜城跡と明治建築が並ぶ黒壁スクエアの商店街。琵琶湖北部ツーリングの定番立ち寄りで、近江牛や地ビールが楽しめるグルメスポットでもある。",
      "tags": [
        "歴史",
        "文化財",
        "グルメ",
        "桜"
      ]
    },
    {
      "name": "琵琶湖大橋",
      "lat": 35.1625,
      "lng": 136.0287,
      "address": "滋賀県守山市今浜町琵琶湖大橋",
      "source": "recommend",
      "category": "展望台・景勝地",
      "description": "琵琶湖を横断する全長1.4kmの橋。橋上からは琵琶湖の大パノラマが広がり、東西岸を結ぶ利便性の高さからツーリングライダーに人気の撮影スポット。",
      "tags": [
        "湖",
        "絶景"
      ]
    },
    {
      "name": "近江八幡・八幡堀",
      "lat": 35.122,
      "lng": 136.0954,
      "address": "滋賀県近江八幡市宮内町",
      "source": "recommend",
      "category": "文化・歴史",
      "description": "豊臣秀次が開いた城下町の水路・八幡堀沿いに続く白壁の町並みが美しい。時代劇のロケ地としても有名で、春の桜と秋の紅葉時は特に絶景となる。",
      "tags": [
        "歴史",
        "桜",
        "紅葉"
      ]
    },
    {
      "name": "道の駅 塩津海道あぢかまの里",
      "lat": 35.5238,
      "lng": 136.1264,
      "address": "滋賀県長浜市西浅井町塩津浜1765",
      "source": "recommend",
      "category": "道の駅",
      "description": "琵琶湖北端の塩津地区に位置する道の駅。湖魚料理や地元野菜が充実し、琵琶湖一周（ビワイチ）ルートの途中にある立ち寄りスポットとして人気。",
      "tags": [
        "道の駅",
        "グルメ",
        "湖"
      ]
    },
    {
      "name": "奥伊吹スキー場周辺",
      "lat": 35.3802,
      "lng": 136.3849,
      "address": "滋賀県米原市甲津原奥伊吹",
      "source": "recommend",
      "category": "展望台・景勝地",
      "description": "伊吹山麓の奥伊吹エリア。夏は高山植物が咲き誇り冬はスキー場になる高原地帯で、国道365号から延びる山岳路は関ヶ原から伊吹山を背景にした絶景ルート。",
      "tags": [
        "絶景",
        "高原",
        "峠"
      ]
    },
    {
      "name": "伊吹山ドライブウェイ",
      "lat": 35.4178,
      "lng": 136.4064,
      "address": "滋賀県米原市上板並伊吹山ドライブウェイ",
      "source": "recommend",
      "category": "峠・山岳",
      "description": "標高1377mの伊吹山山頂近くまで上がれる有料道路。琵琶湖や濃尾平野を見渡す絶景と高山植物の宝庫で、花の百名山に選ばれた山頂の景観は圧倒的。",
      "tags": [
        "峠",
        "絶景",
        "高山"
      ]
    },
    {
      "name": "マキノ高原・メタセコイア並木",
      "lat": 35.4845,
      "lng": 136.0339,
      "address": "滋賀県高島市マキノ町蛭口",
      "source": "recommend",
      "category": "展望台・景勝地",
      "description": "マキノ農業公園から続く約2.4kmのメタセコイア並木。四季折々に美しく特に秋の紅葉は圧巻で、日本の道100選にも選ばれた滋賀を代表するフォトジェニックスポット。",
      "tags": [
        "紅葉",
        "絶景",
        "桜"
      ]
    },
    {
      "name": "比良山系・武奈ヶ岳登山口",
      "lat": 35.3076,
      "lng": 135.8779,
      "address": "滋賀県大津市葛川坊村",
      "source": "recommend",
      "category": "峠・山岳",
      "description": "琵琶湖西岸に連なる比良山系の最高峰・武奈ヶ岳への登山口。坊村から葛川方面へのルートは山岳渓流沿いの爽快な道で、新緑と紅葉の季節が特におすすめ。",
      "tags": [
        "峠",
        "川",
        "紅葉"
      ]
    },
    {
      "name": "道の駅 妹子の郷",
      "lat": 35.1997,
      "lng": 135.9526,
      "address": "滋賀県大津市和邇中浜1-2",
      "source": "recommend",
      "category": "道の駅",
      "description": "遣隋使・小野妹子の故郷に建てられた道の駅。琵琶湖の水辺に近い立地で、近江の特産品や湖魚料理が揃う。琵琶湖西岸ルートの休憩地として定番。",
      "tags": [
        "道の駅",
        "グルメ",
        "湖"
      ]
    },
    {
      "name": "安土城跡",
      "lat": 35.1485,
      "lng": 136.134,
      "address": "滋賀県近江八幡市安土町下豊浦6367",
      "source": "recommend",
      "category": "文化・歴史",
      "description": "織田信長が築いた天下統一の拠点・安土城の跡地。大手道の石畳と巨石が残り、琵琶湖畔に建つかつての天下人の城の規模に圧倒される。信長ゆかりの史跡巡りツーリングに最適。",
      "tags": [
        "歴史",
        "文化財"
      ]
    },
    {
      "name": "信楽（陶芸の森）",
      "lat": 34.877,
      "lng": 136.0656,
      "address": "滋賀県甲賀市信楽町勅旨2188-7",
      "source": "recommend",
      "category": "文化・歴史",
      "description": "日本六古窯のひとつ信楽焼の里。タヌキの置物で有名な陶器の町で、甲賀市の山里に広がる陶芸の森は作陶体験や展示観覧が楽しめる文化スポット。",
      "tags": [
        "文化財",
        "歴史",
        "グルメ"
      ]
    },
    {
      "name": "多賀大社",
      "lat": 35.2256,
      "lng": 136.2821,
      "address": "滋賀県犬上郡多賀町多賀604",
      "source": "recommend",
      "category": "文化・歴史",
      "description": "伊弉諾尊・伊弉冉尊を祀る縁結びと長寿の神社。「お多賀さん」として親しまれ、多賀そうめんや名物の糸切り餅など郷土グルメも魅力。東近江ツーリングの定番スポット。",
      "tags": [
        "歴史",
        "文化財",
        "グルメ"
      ]
    },
    {
      "name": "奥琵琶湖（つづら尾崎展望台）",
      "lat": 35.5076,
      "lng": 136.0618,
      "address": "滋賀県長浜市西浅井町菅浦つづら尾崎",
      "source": "recommend",
      "category": "展望台・景勝地",
      "description": "琵琶湖北端の奥琵琶湖パークウェイ沿いにある展望台。琵琶湖の絶景を180度見渡せるビュースポットで、春の桜と秋の紅葉シーズンは特に美しい県内屈指の絶景地。",
      "tags": [
        "湖",
        "絶景",
        "紅葉",
        "桜"
      ]
    },
    {
      "name": "草津・烏丸半島",
      "lat": 35.0237,
      "lng": 135.9581,
      "address": "滋賀県草津市下物町烏丸半島",
      "source": "recommend",
      "category": "湖・川",
      "description": "琵琶湖南端に突き出た半島で世界最大の淡水藻・ヨシの群生地。烏丸記念公園からの琵琶湖の眺めは格別で、自転車道も整備されたビワイチルートの途中にある。",
      "tags": [
        "湖",
        "絶景"
      ]
    },
    {
      "name": "永源寺",
      "lat": 35.1134,
      "lng": 136.3234,
      "address": "滋賀県東近江市永源寺高野町41",
      "source": "recommend",
      "category": "文化・歴史",
      "description": "愛知川上流の渓谷沿いに建つ臨済宗の禅寺。紅葉の名所として知られ、秋には参道が真っ赤に染まる絶景は滋賀県内屈指の美しさ。奥永源寺地域への入口でもある。",
      "tags": [
        "紅葉",
        "歴史",
        "川"
      ]
    }
  ],
  "recommendCount": 19
}