{
  "prefecture": "静岡県",
  "romaji": "shizuoka",
  "count": 22,
  "curatedCount": 22,
  "manualCount": 0,
  "spots": [
    {
      "spotId": null,
      "name": "伊豆スカイライン",
      "lat": 35.078319,
      "lng": 139.026833,
      "address": "静岡県伊豆市冷川伊豆スカイライン",
      "imageURL": null,
      "source": "curated"
    },
    {
      "spotId": null,
      "name": "黄金崎",
      "lat": 34.843802,
      "lng": 138.761015,
      "address": "静岡県賀茂郡西伊豆町宇久須黄金崎",
      "imageURL": null,
      "source": "curated"
    },
    {
      "spotId": null,
      "name": "下田・龍宮窟",
      "lat": 34.642106,
      "lng": 138.91551,
      "address": "静岡県下田市田牛",
      "imageURL": null,
      "source": "curated"
    },
    {
      "spotId": null,
      "name": "三保の松原",
      "lat": 34.994742,
      "lng": 138.523802,
      "address": "静岡県静岡市清水区三保",
      "imageURL": null,
      "source": "curated"
    },
    {
      "spotId": null,
      "name": "修善寺温泉",
      "lat": 34.970545,
      "lng": 138.928386,
      "address": "静岡県伊豆市修善寺",
      "imageURL": null,
      "source": "curated"
    },
    {
      "spotId": null,
      "name": "寸又峡",
      "lat": 35.181061,
      "lng": 138.112264,
      "address": "静岡県 川根本町",
      "imageURL": null,
      "source": "curated"
    },
    {
      "spotId": null,
      "name": "西伊豆スカイライン",
      "lat": 34.960106,
      "lng": 138.837651,
      "address": "静岡県伊豆市土肥西伊豆スカイライン",
      "imageURL": null,
      "source": "curated"
    },
    {
      "spotId": null,
      "name": "石廊崎",
      "lat": 34.601951,
      "lng": 138.846047,
      "address": "静岡県賀茂郡南伊豆町石廊崎",
      "imageURL": null,
      "source": "curated"
    },
    {
      "spotId": null,
      "name": "大室山",
      "lat": 34.903137,
      "lng": 139.094759,
      "address": "静岡県伊東市池672-2",
      "imageURL": null,
      "source": "curated"
    },
    {
      "spotId": null,
      "name": "堂ヶ島",
      "lat": 34.782545,
      "lng": 138.767053,
      "address": "静岡県賀茂郡西伊豆町仁科堂ヶ島",
      "imageURL": null,
      "source": "curated"
    },
    {
      "spotId": null,
      "name": "道の駅 伊豆ゲートウェイ函南",
      "lat": 35.075842,
      "lng": 138.925974,
      "address": "静岡県田方郡函南町塚本367-1",
      "imageURL": null,
      "source": "curated"
    },
    {
      "spotId": null,
      "name": "道の駅 朝霧高原",
      "lat": 35.413805,
      "lng": 138.590857,
      "address": "静岡県富士宮市上井出3690-1",
      "imageURL": null,
      "source": "curated"
    },
    {
      "spotId": null,
      "name": "道の駅 天城越え",
      "lat": 34.855721,
      "lng": 138.922205,
      "address": "静岡県伊豆市湯ヶ島旧天城トンネル",
      "imageURL": null,
      "source": "curated"
    },
    {
      "spotId": null,
      "name": "道の駅 富士川楽座",
      "lat": 35.161878,
      "lng": 138.618466,
      "address": "静岡県富士市岩淵1445",
      "imageURL": null,
      "source": "curated"
    },
    {
      "spotId": null,
      "name": "日本平",
      "lat": 34.974665,
      "lng": 138.465843,
      "address": "静岡県 静岡市",
      "imageURL": null,
      "source": "curated"
    },
    {
      "spotId": null,
      "name": "熱海城",
      "lat": 35.086378,
      "lng": 139.078682,
      "address": "静岡県 熱海市",
      "imageURL": null,
      "source": "curated"
    },
    {
      "spotId": null,
      "name": "浜松城",
      "lat": 34.711844,
      "lng": 137.724867,
      "address": "静岡県浜松市中区田町325-8",
      "imageURL": null,
      "source": "curated"
    },
    {
      "spotId": null,
      "name": "富士五湖・本栖湖",
      "lat": 35.474162,
      "lng": 138.575588,
      "address": "静岡県南都留郡富士河口湖町本栖",
      "imageURL": null,
      "source": "curated"
    },
    {
      "spotId": null,
      "name": "富士山スカイライン（富士宮口）",
      "lat": 35.336729,
      "lng": 138.735867,
      "address": "静岡県富士宮市富士山スカイライン",
      "imageURL": null,
      "source": "curated"
    },
    {
      "spotId": null,
      "name": "富士山本宮浅間大社",
      "lat": 35.22734,
      "lng": 138.610019,
      "address": "静岡県 富士宮市",
      "imageURL": null,
      "source": "curated"
    },
    {
      "spotId": null,
      "name": "弁天島海浜公園",
      "lat": 34.688945,
      "lng": 137.60273,
      "address": "静岡県浜松市西区舘山寺",
      "imageURL": null,
      "source": "curated"
    },
    {
      "spotId": null,
      "name": "竜ヶ岩洞",
      "lat": 34.845101,
      "lng": 137.649084,
      "address": "静岡県浜松市北区引佐町田畑193",
      "imageURL": null,
      "source": "curated"
    }
  ]
}
