{
  "prefecture": "静岡県",
  "romaji": "shizuoka",
  "count": 6,
  "curatedCount": 6,
  "manualCount": 0,
  "spots": [
    {
      "name": "三保松原",
      "lat": 35.001512,
      "lng": 138.517599,
      "address": "静岡県 静岡市",
      "source": "curated"
    },
    {
      "name": "富士山本宮浅間大社",
      "lat": 35.22734,
      "lng": 138.610019,
      "address": "静岡県 富士宮市",
      "source": "curated"
    },
    {
      "name": "日本平",
      "lat": 34.976732,
      "lng": 138.466619,
      "address": "静岡県 静岡市",
      "source": "curated"
    },
    {
      "name": "久能山東照宮",
      "lat": 34.964786,
      "lng": 138.467598,
      "address": "静岡県 静岡市",
      "source": "curated"
    },
    {
      "name": "寸又峡",
      "lat": 35.174699,
      "lng": 138.118059,
      "address": "静岡県 川根本町",
      "source": "curated"
    },
    {
      "name": "熱海城",
      "lat": 35.086378,
      "lng": 139.078682,
      "address": "静岡県 熱海市",
      "source": "curated"
    }
  ]
}
