{
  "prefecture": "徳島県",
  "romaji": "tokushima",
  "count": 15,
  "curatedCount": 15,
  "manualCount": 0,
  "spots": [
    {
      "spotId": null,
      "name": "阿波おどり会館",
      "lat": 34.070194,
      "lng": 134.545077,
      "address": "徳島県 徳島市",
      "imageURL": null,
      "source": "curated"
    },
    {
      "spotId": null,
      "name": "阿波の土柱",
      "lat": 34.092053,
      "lng": 134.206219,
      "address": "徳島県阿波市阿波町北山",
      "imageURL": null,
      "source": "curated"
    },
    {
      "spotId": null,
      "name": "奥祖谷二重かずら橋",
      "lat": 33.853581,
      "lng": 134.045863,
      "address": "徳島県三好市東祖谷菅生620",
      "imageURL": null,
      "source": "curated"
    },
    {
      "spotId": null,
      "name": "剣山",
      "lat": 33.868456,
      "lng": 134.090366,
      "address": "徳島県美馬郡つるぎ町一宇剣山",
      "imageURL": null,
      "source": "curated"
    },
    {
      "spotId": null,
      "name": "小歩危峡",
      "lat": 33.922993,
      "lng": 133.76009,
      "address": "徳島県三好市山城町上名",
      "imageURL": null,
      "source": "curated"
    },
    {
      "spotId": null,
      "name": "祖谷のかずら橋",
      "lat": 33.875261,
      "lng": 133.835106,
      "address": "徳島県三好市西祖谷山村善徳162-2",
      "imageURL": null,
      "source": "curated"
    },
    {
      "spotId": null,
      "name": "大塚国際美術館",
      "lat": 34.232579,
      "lng": 134.637537,
      "address": "徳島県 鳴門市",
      "imageURL": null,
      "source": "curated"
    },
    {
      "spotId": null,
      "name": "大歩危",
      "lat": 33.87623,
      "lng": 133.767503,
      "address": "徳島県 三好市",
      "imageURL": null,
      "source": "curated"
    },
    {
      "spotId": null,
      "name": "道の駅 どなり",
      "lat": 34.150951,
      "lng": 134.352407,
      "address": "徳島県阿波市土成町吉田字尻高75",
      "imageURL": null,
      "source": "curated"
    },
    {
      "spotId": null,
      "name": "道の駅 公方の郷なかがわ",
      "lat": 33.952917,
      "lng": 134.667586,
      "address": "徳島県阿波市阿波町北山117",
      "imageURL": null,
      "source": "curated"
    },
    {
      "spotId": null,
      "name": "道の駅 大歩危",
      "lat": 33.881078,
      "lng": 133.760096,
      "address": "徳島県三好市山城町上名1553-1",
      "imageURL": null,
      "source": "curated"
    },
    {
      "spotId": null,
      "name": "日和佐（薬王寺・うみがめ）",
      "lat": 33.729622,
      "lng": 134.536171,
      "address": "徳島県海部郡美波町日和佐浦370",
      "imageURL": null,
      "source": "curated"
    },
    {
      "spotId": null,
      "name": "眉山",
      "lat": 34.067165,
      "lng": 134.537458,
      "address": "徳島県 徳島市",
      "imageURL": null,
      "source": "curated"
    },
    {
      "spotId": null,
      "name": "撫養・鳴門スカイライン",
      "lat": 34.232951,
      "lng": 134.603462,
      "address": "徳島県鳴門市撫養町",
      "imageURL": null,
      "source": "curated"
    },
    {
      "spotId": null,
      "name": "鳴門の渦潮",
      "lat": 34.237395,
      "lng": 134.646946,
      "address": "徳島県 鳴門市",
      "imageURL": null,
      "source": "curated"
    }
  ]
}
