{
  "prefecture": "徳島県",
  "romaji": "tokushima",
  "count": 25,
  "curatedCount": 5,
  "manualCount": 0,
  "spots": [
    {
      "name": "鳴門の渦潮",
      "lat": 34.236626,
      "lng": 134.651052,
      "address": "徳島県 鳴門市",
      "source": "curated"
    },
    {
      "name": "大歩危",
      "lat": 33.87623,
      "lng": 133.767503,
      "address": "徳島県 三好市",
      "source": "curated"
    },
    {
      "name": "眉山",
      "lat": 34.060858,
      "lng": 134.516403,
      "address": "徳島県 徳島市",
      "source": "curated"
    },
    {
      "name": "阿波おどり会館",
      "lat": 34.070194,
      "lng": 134.545077,
      "address": "徳島県 徳島市",
      "source": "curated"
    },
    {
      "name": "大塚国際美術館",
      "lat": 34.232579,
      "lng": 134.637537,
      "address": "徳島県 鳴門市",
      "source": "curated"
    },
    {
      "name": "祖谷のかずら橋",
      "lat": 33.857222,
      "lng": 133.884167,
      "address": "徳島県三好市西祖谷山村善徳162-2",
      "source": "recommend",
      "category": "文化・歴史",
      "description": "シラクチカズラで編んだ吊り橋。日本三奇橋の一つで、深い祖谷渓谷に架かる原始的な橋は秘境感抜群のツーリング目的地。",
      "tags": [
        "歴史",
        "絶景"
      ]
    },
    {
      "name": "大歩危峡",
      "lat": 33.865217,
      "lng": 133.773611,
      "address": "徳島県三好市山城町西宇",
      "source": "recommend",
      "category": "湖・川",
      "description": "吉野川が深い渓谷を刻んだ白い岩床と緑の水の絶景。遊覧船から眺める渓谷美は格別で、ラフティングも盛んな秘境ツーリングの定番。",
      "tags": [
        "絶景",
        "湖・川"
      ]
    },
    {
      "name": "小歩危峡",
      "lat": 33.227339,
      "lng": 131.635688,
      "address": "徳島県三好市山城町上名",
      "source": "recommend",
      "category": "湖・川",
      "description": "大歩危の下流に続く渓谷。より狭い谷に清流が流れ、国道32号を走りながら眼下に渓谷美が楽しめるツーリングルートの見どころ。",
      "tags": [
        "絶景",
        "湖・川"
      ]
    },
    {
      "name": "剣山",
      "lat": 33.853579,
      "lng": 134.094286,
      "address": "徳島県美馬郡つるぎ町一宇剣山",
      "source": "recommend",
      "category": "峠・山岳",
      "description": "四国第2の高峰。国道438号の酷道として有名だが、頂上付近からの360度パノラマは圧巻。険道ツーリング上級者に人気の山岳道。",
      "tags": [
        "峠",
        "絶景"
      ]
    },
    {
      "name": "鳴門海峡（大鳴門橋）",
      "lat": 34.22823,
      "lng": 134.658745,
      "address": "徳島県鳴門市鳴門町鳴門公園",
      "source": "recommend",
      "category": "展望台・景勝地",
      "description": "世界最大級の渦潮が巻く海峡。大鳴門橋の遊歩道から渦潮を見下ろす体験は迫力満点。淡路島へのツーリングルートの玄関口。",
      "tags": [
        "絶景",
        "観光名所"
      ]
    },
    {
      "name": "道の駅 大歩危",
      "lat": 33.881078,
      "lng": 133.760096,
      "address": "徳島県三好市山城町上名1553-1",
      "source": "recommend",
      "category": "道の駅",
      "description": "渓谷の絶景を眺めながら休憩できる道の駅。妖怪が集まる雰囲気のユニークな建物で、祖谷の地元グルメも楽しめる。",
      "tags": [
        "道の駅",
        "絶景"
      ]
    },
    {
      "name": "祖谷渓（祖谷渓温泉）",
      "lat": 35.793049,
      "lng": 139.770193,
      "address": "徳島県三好市西祖谷山村梅木367-28",
      "source": "recommend",
      "category": "温泉",
      "description": "深い渓谷に湧く秘湯。宿泊施設のある温泉から見下ろす祖谷の山々は絶景で、かずら橋と合わせて祖谷ツーリングの大きな魅力。",
      "tags": [
        "温泉",
        "絶景"
      ]
    },
    {
      "name": "鳴門・うずしお遊覧",
      "lat": 34.178899,
      "lng": 134.608452,
      "address": "徳島県鳴門市鳴門町鳴門公園16",
      "source": "recommend",
      "category": "文化・歴史",
      "description": "船から世界三大潮流の渦潮を間近に見られる観光船。鳴門観光の核で、橋の上からとは違う迫力を体感できる徳島必訪の体験。",
      "tags": [
        "観光名所"
      ]
    },
    {
      "name": "眉山（徳島市）",
      "lat": 34.060858,
      "lng": 134.516403,
      "address": "徳島県徳島市眉山町",
      "source": "recommend",
      "category": "展望台・景勝地",
      "description": "徳島市街地のシンボル的な山。ロープウェイで登頂すると四国山地と紀伊水道を一望でき、夜景も美しい市内随一の展望地。",
      "tags": [
        "絶景"
      ]
    },
    {
      "name": "徳島県立渦の道",
      "lat": 34.145278,
      "lng": 134.6325,
      "address": "徳島県鳴門市鳴門町鳴門公園内",
      "source": "recommend",
      "category": "展望台・景勝地",
      "description": "大鳴門橋の橋桁内の通路から渦潮を見下ろせる展望施設。海面から45mのガラス床から渦潮を直接見る迫力は唯一無二の体験。",
      "tags": [
        "絶景",
        "観光名所"
      ]
    },
    {
      "name": "剣山スーパー林道",
      "lat": 33.871818,
      "lng": 134.185743,
      "address": "徳島県那賀郡那賀町木頭",
      "source": "recommend",
      "category": "ツーリングロード",
      "description": "日本一の林道と称される全長87kmのダート路。四国山地の尾根を縫うように走るアドベンチャーライダー憧れの秘境ルート。",
      "tags": [
        "峠",
        "絶景"
      ]
    },
    {
      "name": "ひのみね自然の里",
      "lat": 33.7,
      "lng": 134.128333,
      "address": "徳島県那賀郡那賀町小浜字大深5",
      "source": "recommend",
      "category": "峠・山岳",
      "description": "那賀町の自然豊かな高原リゾート。キャンプ場や温泉があり、剣山スーパー林道ツーリングの拠点として利用するライダーも多い。",
      "tags": [
        "温泉",
        "峠"
      ]
    },
    {
      "name": "阿波の土柱",
      "lat": 34.092053,
      "lng": 134.206219,
      "address": "徳島県阿波市阿波町北山",
      "source": "recommend",
      "category": "展望台・景勝地",
      "description": "長年の風雨が砂礫層を削って形成した奇岩群。世界三大土柱の一つに数えられ、四国とは思えない不思議な地形が見られる天然記念物。",
      "tags": [
        "観光名所",
        "絶景"
      ]
    },
    {
      "name": "道の駅 公方の郷なかがわ",
      "lat": 33.952917,
      "lng": 134.667586,
      "address": "徳島県阿波市阿波町北山117",
      "source": "recommend",
      "category": "道の駅",
      "description": "阿波市北部に立地する道の駅。地元特産の阿波藍の展示や農産物直売所があり、剣山・祖谷へ向かうルートの休憩拠点。",
      "tags": [
        "道の駅"
      ]
    },
    {
      "name": "海部・宍喰（南阿波サンライン）",
      "lat": 33.593773,
      "lng": 134.352086,
      "address": "徳島県海部郡美波町日和佐",
      "source": "recommend",
      "category": "ツーリングロード",
      "description": "太平洋を眺めながら走る絶景ルート。切り立った断崖と太平洋の青が続く南阿波の海岸線は四国らしい雄大な景観が楽しめる。",
      "tags": [
        "海岸線",
        "絶景",
        "ツーリングロード"
      ]
    },
    {
      "name": "日和佐（薬王寺・うみがめ）",
      "lat": 33.729045,
      "lng": 134.530632,
      "address": "徳島県海部郡美波町日和佐浦370",
      "source": "recommend",
      "category": "文化・歴史",
      "description": "四国八十八箇所23番札所の薬王寺と、アカウミガメの産卵地として有名な大浜海岸がある港町。遍路ツーリングの立ち寄りスポット。",
      "tags": [
        "歴史",
        "観光名所"
      ]
    },
    {
      "name": "奥祖谷二重かずら橋",
      "lat": 33.853581,
      "lng": 134.045863,
      "address": "徳島県三好市東祖谷菅生620",
      "source": "recommend",
      "category": "文化・歴史",
      "description": "かずら橋よりも奥の渓谷にある二本のかずら橋。男橋・女橋と呼ばれ、夫婦橋として親しまれ、観光客も少ない深山の秘境感が魅力。",
      "tags": [
        "歴史",
        "絶景"
      ]
    },
    {
      "name": "道の駅 どなり",
      "lat": 34.114167,
      "lng": 134.308333,
      "address": "徳島県阿波市土成町吉田字尻高75",
      "source": "recommend",
      "category": "道の駅",
      "description": "吉野川沿いの道の駅。阿波踊りの里・土成から程近く、国道11号を走る際の快適な休憩スポット。地元農産物が揃う。",
      "tags": [
        "道の駅"
      ]
    },
    {
      "name": "撫養・鳴門スカイライン",
      "lat": 34.173141,
      "lng": 134.600643,
      "address": "徳島県鳴門市撫養町",
      "source": "recommend",
      "category": "ツーリングロード",
      "description": "鳴門市内の山間を走る海を望む快走路。鳴門海峡と淡路島を眺めながら走れる眺望抜群の地元ライダー御用達のルート。",
      "tags": [
        "絶景",
        "海岸線",
        "ツーリングロード"
      ]
    },
    {
      "name": "竜ヶ岳（徳島市南郊）",
      "lat": 37.581767,
      "lng": 139.599809,
      "address": "徳島県徳島市多家良町",
      "source": "recommend",
      "category": "峠・山岳",
      "description": "徳島市近郊の峠道。みかん畑の段々畑と紀伊水道の眺望が広がる農村風景の中を走れる、地元ライダーに人気の峠ルート。",
      "tags": [
        "峠",
        "絶景"
      ]
    }
  ],
  "recommendCount": 20
}