{
  "prefecture": "徳島県",
  "romaji": "tokushima",
  "count": 5,
  "curatedCount": 5,
  "manualCount": 0,
  "spots": [
    {
      "name": "鳴門の渦潮",
      "lat": 34.236626,
      "lng": 134.651052,
      "address": "徳島県 鳴門市",
      "source": "curated"
    },
    {
      "name": "大歩危",
      "lat": 33.87623,
      "lng": 133.767503,
      "address": "徳島県 三好市",
      "source": "curated"
    },
    {
      "name": "眉山",
      "lat": 34.060858,
      "lng": 134.516403,
      "address": "徳島県 徳島市",
      "source": "curated"
    },
    {
      "name": "阿波おどり会館",
      "lat": 34.070194,
      "lng": 134.545077,
      "address": "徳島県 徳島市",
      "source": "curated"
    },
    {
      "name": "大塚国際美術館",
      "lat": 34.232579,
      "lng": 134.637537,
      "address": "徳島県 鳴門市",
      "source": "curated"
    }
  ]
}
