{
  "_note": "県別おすすめラリー（福島県）。data/prefecture-recommend/fukushima.json から生成。座標は Nominatim 由来。targetIdは年度内固定。内容変更はビルダーで「おすすめ」を編集→再生成。",
  "rallyId": "pref-fukushima-recommend-2026",
  "name": "福島県 おすすめスポット 2026",
  "theme": "recommend",
  "category": "prefecture",
  "prefecture": "福島県",
  "region": "東北",
  "description": "福島県の人気観光スポットをめぐる通年チャレンジ。",
  "fiscalYear": 2026,
  "startAt": "2026-04-01T00:00:00+09:00",
  "endAt": "2027-03-31T23:59:59+09:00",
  "rewardBadgeId": "badge_pref_fukushima_recommend_2026",
  "completionTitle": "福島県 名所めぐり 2026",
  "targets": [
    {
      "targetId": "t01",
      "name": "鶴ヶ城",
      "lat": 37.487735,
      "lng": 139.929766,
      "order": 1,
      "address": "福島県 会津若松市"
    },
    {
      "targetId": "t02",
      "name": "五色沼",
      "lat": 37.740628,
      "lng": 140.243175,
      "order": 2,
      "address": "福島県 福島市"
    },
    {
      "targetId": "t03",
      "name": "大内宿",
      "lat": 37.333629,
      "lng": 139.860662,
      "order": 3,
      "address": "福島県 下郷町"
    },
    {
      "targetId": "t04",
      "name": "あぶくま洞",
      "lat": 37.344769,
      "lng": 140.672899,
      "order": 4,
      "address": "福島県 田村市"
    },
    {
      "targetId": "t05",
      "name": "塔のへつり",
      "lat": 37.274819,
      "lng": 139.901839,
      "order": 5,
      "address": "福島県 下郷町"
    },
    {
      "targetId": "t06",
      "name": "飯盛山",
      "lat": 37.503585,
      "lng": 139.955933,
      "order": 6,
      "address": "福島県 会津若松市"
    }
  ]
}
