{
  "_note": "県別おすすめラリー（石川県）。data/prefecture-recommend/ishikawa.json から生成。座標は Nominatim 由来。targetIdは年度内固定。内容変更はビルダーで「おすすめ」を編集→再生成。",
  "rallyId": "pref-ishikawa-recommend-2026",
  "name": "石川県 おすすめスポット 2026",
  "theme": "recommend",
  "category": "prefecture",
  "prefecture": "石川県",
  "region": "中部",
  "description": "石川県の人気観光スポットをめぐる通年チャレンジ。",
  "fiscalYear": 2026,
  "startAt": "2026-04-01T00:00:00+09:00",
  "endAt": "2027-03-31T23:59:59+09:00",
  "rewardBadgeId": "badge_pref_ishikawa_recommend_2026",
  "completionTitle": "石川県 名所めぐり 2026",
  "targets": [
    {
      "targetId": "t01",
      "name": "兼六園",
      "lat": 36.562427,
      "lng": 136.662355,
      "order": 1,
      "address": "石川県 金沢市"
    },
    {
      "targetId": "t02",
      "name": "ひがし茶屋街",
      "lat": 36.572556,
      "lng": 136.666676,
      "order": 2,
      "address": "石川県 金沢市"
    },
    {
      "targetId": "t03",
      "name": "千里浜なぎさドライブウェイ",
      "lat": 36.844165,
      "lng": 136.751051,
      "order": 3,
      "address": "石川県 宝達志水町"
    },
    {
      "targetId": "t04",
      "name": "金沢城公園",
      "lat": 36.565762,
      "lng": 136.659447,
      "order": 4,
      "address": "石川県 金沢市"
    },
    {
      "targetId": "t05",
      "name": "近江町市場",
      "lat": 36.572535,
      "lng": 136.655325,
      "order": 5,
      "address": "石川県 金沢市"
    },
    {
      "targetId": "t06",
      "name": "白米千枚田",
      "lat": 37.425699,
      "lng": 136.999029,
      "order": 6,
      "address": "石川県 輪島市"
    }
  ]
}
