{
  "_note": "県別おすすめラリー（長野県）。data/prefecture-recommend/nagano.json から生成。座標は Nominatim 由来。targetIdは年度内固定。内容変更はビルダーで「おすすめ」を編集→再生成。",
  "rallyId": "pref-nagano-recommend-2026",
  "name": "長野県 おすすめスポット 2026",
  "theme": "recommend",
  "category": "prefecture",
  "prefecture": "長野県",
  "region": "中部",
  "description": "長野県の人気観光スポットをめぐる通年チャレンジ。",
  "fiscalYear": 2026,
  "startAt": "2026-04-01T00:00:00+09:00",
  "endAt": "2027-03-31T23:59:59+09:00",
  "rewardBadgeId": "badge_pref_nagano_recommend_2026",
  "completionTitle": "長野県 名所めぐり 2026",
  "targets": [
    {
      "targetId": "t01",
      "name": "善光寺",
      "lat": 36.661423,
      "lng": 138.187658,
      "order": 1,
      "address": "長野県 長野市"
    },
    {
      "targetId": "t02",
      "name": "上高地",
      "lat": 36.25393,
      "lng": 137.660941,
      "order": 2,
      "address": "長野県 松本市"
    },
    {
      "targetId": "t03",
      "name": "松本城",
      "lat": 36.238635,
      "lng": 137.968871,
      "order": 3,
      "address": "長野県 松本市"
    },
    {
      "targetId": "t04",
      "name": "地獄谷野猿公苑",
      "lat": 36.732812,
      "lng": 138.462319,
      "order": 4,
      "address": "長野県 山ノ内町"
    },
    {
      "targetId": "t05",
      "name": "諏訪大社",
      "lat": 36.01969,
      "lng": 138.131229,
      "order": 5,
      "address": "長野県 諏訪市"
    },
    {
      "targetId": "t06",
      "name": "千畳敷カール",
      "lat": 35.780249,
      "lng": 137.813822,
      "order": 6,
      "address": "長野県 宮田村"
    }
  ]
}
