{
  "_note": "県別おすすめラリー（佐賀県）。data/prefecture-recommend/saga.json から生成。座標は Nominatim 由来。targetIdは年度内固定。内容変更はビルダーで「おすすめ」を編集→再生成。",
  "rallyId": "pref-saga-recommend-2026",
  "name": "佐賀県 おすすめスポット 2026",
  "theme": "recommend",
  "category": "prefecture",
  "prefecture": "佐賀県",
  "region": "九州沖縄",
  "description": "佐賀県の人気観光スポットをめぐる通年チャレンジ。",
  "fiscalYear": 2026,
  "startAt": "2026-04-01T00:00:00+09:00",
  "endAt": "2027-03-31T23:59:59+09:00",
  "rewardBadgeId": "badge_pref_saga_recommend_2026",
  "completionTitle": "佐賀県 名所めぐり 2026",
  "targets": [
    {
      "targetId": "t01",
      "name": "吉野ヶ里遺跡",
      "lat": 33.325421,
      "lng": 130.384381,
      "order": 1,
      "address": "佐賀県 吉野ヶ里町"
    },
    {
      "targetId": "t02",
      "name": "祐徳稲荷神社",
      "lat": 33.074398,
      "lng": 130.108065,
      "order": 2,
      "address": "佐賀県 鹿島市"
    },
    {
      "targetId": "t03",
      "name": "唐津城",
      "lat": 33.453513,
      "lng": 129.978193,
      "order": 3,
      "address": "佐賀県 唐津市"
    },
    {
      "targetId": "t04",
      "name": "武雄温泉",
      "lat": 33.196442,
      "lng": 130.023032,
      "order": 4,
      "address": "佐賀県 武雄市"
    },
    {
      "targetId": "t05",
      "name": "御船山楽園",
      "lat": 33.181909,
      "lng": 130.018252,
      "order": 5,
      "address": "佐賀県 武雄市"
    },
    {
      "targetId": "t06",
      "name": "大魚神社の海中鳥居",
      "lat": 33.031101,
      "lng": 130.177447,
      "order": 6,
      "address": "佐賀県 太良町"
    }
  ]
}
