{
  "_note": "県別おすすめラリー（栃木県）。data/prefecture-recommend/tochigi.json から生成。座標は Nominatim 由来。targetIdは年度内固定。内容変更はビルダーで「おすすめ」を編集→再生成。",
  "rallyId": "pref-tochigi-recommend-2026",
  "name": "栃木県 おすすめスポット 2026",
  "theme": "recommend",
  "category": "prefecture",
  "prefecture": "栃木県",
  "region": "関東",
  "description": "栃木県の人気観光スポットをめぐる通年チャレンジ。",
  "fiscalYear": 2026,
  "startAt": "2026-04-01T00:00:00+09:00",
  "endAt": "2027-03-31T23:59:59+09:00",
  "rewardBadgeId": "badge_pref_tochigi_recommend_2026",
  "completionTitle": "栃木県 名所めぐり 2026",
  "targets": [
    {
      "targetId": "t01",
      "name": "日光東照宮",
      "lat": 36.757638,
      "lng": 139.59911,
      "order": 1,
      "address": "栃木県 日光市"
    },
    {
      "targetId": "t02",
      "name": "華厳の滝",
      "lat": 36.738228,
      "lng": 139.503602,
      "order": 2,
      "address": "栃木県 日光市"
    },
    {
      "targetId": "t03",
      "name": "あしかがフラワーパーク",
      "lat": 36.315158,
      "lng": 139.518393,
      "order": 3,
      "address": "栃木県 足利市"
    },
    {
      "targetId": "t04",
      "name": "中禅寺湖",
      "lat": 36.736849,
      "lng": 139.476868,
      "order": 4,
      "address": "栃木県 日光市"
    },
    {
      "targetId": "t05",
      "name": "鬼怒川温泉",
      "lat": 36.822576,
      "lng": 139.716697,
      "order": 5,
      "address": "栃木県 日光市"
    },
    {
      "targetId": "t06",
      "name": "那須高原",
      "lat": 37.074705,
      "lng": 140.005252,
      "order": 6,
      "address": "栃木県 那須町"
    }
  ]
}
