{
  "_note": "サンプル/テンプレート。lat/lng は概算プレースホルダーです。実運用前に正確な座標へ、可能なら spotId（locationDBName または MicinoEki の docID）へ差し替えてください。targetId は年度内で変更しないこと（ユーザーのスタンプ紐付けがズレます）。",
  "rallyId": "michinoeki-tohoku-2025",
  "name": "東北 道の駅めぐり 2025",
  "theme": "michinoeki",
  "region": "東北",
  "description": "東北の人気道の駅をめぐるスタンプラリー。チェックインまたは写真投稿でスタンプ獲得。",
  "fiscalYear": 2025,
  "startAt": "2025-04-01T00:00:00+09:00",
  "endAt": "2026-03-31T23:59:59+09:00",
  "coverImageURL": "https://biketeilen.web.app/images/rallies/michinoeki-tohoku-2025.jpg",
  "rewardBadgeId": "badge_michinoeki_tohoku_2025",
  "completionTitle": "東北 道の駅マスター 2025",
  "targets": [
    { "targetId": "t01", "name": "道の駅 あ・ら・伊達な道の駅", "lat": 38.731, "lng": 140.776, "address": "宮城県大崎市", "order": 1, "spotId": null },
    { "targetId": "t02", "name": "道の駅 七ヶ宿", "lat": 38.045, "lng": 140.456, "address": "宮城県刈田郡七ヶ宿町", "order": 2 },
    { "targetId": "t03", "name": "道の駅 たろう", "lat": 39.741, "lng": 141.974, "address": "岩手県宮古市", "order": 3 },
    { "targetId": "t04", "name": "道の駅 雫石あねっこ", "lat": 39.701, "lng": 140.918, "address": "岩手県岩手郡雫石町", "order": 4 },
    { "targetId": "t05", "name": "道の駅 鳥海 ふらっと", "lat": 39.171, "lng": 139.907, "address": "秋田県由利本荘市", "order": 5 }
  ]
}
