{
  "prefecture": "千葉県",
  "romaji": "chiba",
  "count": 35,
  "appCount": 35,
  "manualCount": 0,
  "spots": [
    {
      "spotId": "P73KgcmS0qv47NRMjurF",
      "name": "いすみ市",
      "lat": 35.30770833333333,
      "lng": 140.41386333333332,
      "address": "千葉県",
      "imageURL": "https://firebasestorage.googleapis.com/v0/b/biketeilen.appspot.com/o/iconImage%2FXt0WNeUWag.jpg?alt=media&token=39b81c01-f7ee-45e4-897c-0d20a66a7e54",
      "source": "app"
    },
    {
      "spotId": "V2qk7nabRwJJ7uyoz8HY",
      "name": "いすみ市",
      "lat": 35.22134667000001,
      "lng": 140.35371332999998,
      "address": "千葉県",
      "imageURL": "https://firebasestorage.googleapis.com/v0/b/biketeilen.appspot.com/o/iconImage%2FEMaeEzPaby.jpg?alt=media&token=ea8a12c5-1ebf-4de4-9d7e-e7a88ebd63e9",
      "source": "app"
    },
    {
      "spotId": "wXpFo1lCCcYA4kSpzWFS",
      "name": "いすみ市",
      "lat": 35.22477,
      "lng": 140.39631666666668,
      "address": "千葉県",
      "imageURL": "https://firebasestorage.googleapis.com/v0/b/biketeilen.appspot.com/o/iconImage%2FKLwPa8uMIZ.jpg?alt=media&token=185563b2-cf1b-481d-8022-f6c0a77e6200",
      "source": "app"
    },
    {
      "spotId": "xWWXlnHXxgSY5euEESIE",
      "name": "岡本桟橋",
      "lat": 35.04398616666667,
      "lng": 139.83184666666668,
      "address": "千葉県",
      "imageURL": "https://firebasestorage.googleapis.com/v0/b/biketeilen.appspot.com/o/iconImage%2FLBW3avq5LO.jpg?alt=media&token=8d3f2636-14b6-4165-ba48-c082540596a7",
      "source": "app"
    },
    {
      "spotId": "IAox0Fln9wdxYGXRFSOE",
      "name": "鴨川市",
      "lat": 35.063722166666665,
      "lng": 140.0773305,
      "address": "千葉県",
      "imageURL": "https://firebasestorage.googleapis.com/v0/b/biketeilen.appspot.com/o/iconImage%2F0gYn1bWksX.jpg?alt=media&token=4f3cf485-082a-468f-8ed3-3a8920cffd91",
      "source": "app"
    },
    {
      "spotId": "Tz3rJufJlKUi028yMQ3G",
      "name": "関宿城博物館",
      "lat": 36.10046116666667,
      "lng": 139.78295833333334,
      "address": "千葉県",
      "imageURL": "https://firebasestorage.googleapis.com:443/v0/b/biketeilen.appspot.com/o/images%2F2026030114400732.jpg?alt=media&token=ffae94e6-317a-4d6e-872c-a98a779f1e2c",
      "source": "app"
    },
    {
      "spotId": "0XUbSrXjQzL5wWPTxBp6",
      "name": "君津市",
      "lat": 35.26797499999999,
      "lng": 140.00111389,
      "address": "千葉県",
      "imageURL": "https://firebasestorage.googleapis.com/v0/b/biketeilen.appspot.com/o/iconImage%2FOgWsTqVLwp.jpg?alt=media&token=68b223e3-81db-4354-a42f-647f7c57416b",
      "source": "app"
    },
    {
      "spotId": "kfRqraCQfPc17WcuKcvj",
      "name": "犬吠埼",
      "lat": 35.70736591707515,
      "lng": 140.868197232616,
      "address": "千葉県",
      "imageURL": "https://firebasestorage.googleapis.com:443/v0/b/biketeilen.appspot.com/o/images%2F2025112421342678.jpg?alt=media&token=d201b6ff-e122-4cd3-9e46-84165e1439ff",
      "source": "app"
    },
    {
      "spotId": "FEXKu6CzBvWx20W2kKDo",
      "name": "香取郡神崎町",
      "lat": 35.897913333333335,
      "lng": 140.38798666666668,
      "address": "千葉県",
      "imageURL": "https://firebasestorage.googleapis.com/v0/b/biketeilen.appspot.com/o/images%2F202112302302173.jpg?alt=media&token=e946672d-2ed5-4dc5-8af8-c2be744f58f3",
      "source": "app"
    },
    {
      "spotId": "6wFslPqkIFiYlkbw5VUw",
      "name": "香取郡多古町",
      "lat": 35.73117167,
      "lng": 140.47499167,
      "address": "千葉県",
      "imageURL": "https://firebasestorage.googleapis.com/v0/b/biketeilen.appspot.com/o/iconImage%2FtyWTTmntth.jpg?alt=media&token=b5c3e607-c459-4376-b524-d1447a81b775",
      "source": "app"
    },
    {
      "spotId": "0qGeDJYyNxFMwZoNIxil",
      "name": "高滝観光駐車場",
      "lat": 35.35111902284934,
      "lng": 140.16152241280318,
      "address": "千葉県",
      "imageURL": "https://firebasestorage.googleapis.com:443/v0/b/biketeilen.appspot.com/o/images%2F2025112421462686.jpg?alt=media&token=581af5f7-acf0-4368-88ed-a529d5290660",
      "source": "app"
    },
    {
      "spotId": "26MzuDFgNUnZaDRENl1E",
      "name": "市原市",
      "lat": 35.52757833,
      "lng": 140.20970333,
      "address": "千葉県",
      "imageURL": "https://firebasestorage.googleapis.com/v0/b/biketeilen.appspot.com/o/iconImage%2FvXgF5ePisT.jpg?alt=media&token=2c6afb27-c575-4f37-a35a-78c2dfd7c4fe",
      "source": "app"
    },
    {
      "spotId": "6y2atN6IEyUDw5OORPMv",
      "name": "市原市",
      "lat": 35.35128,
      "lng": 140.16072,
      "address": "千葉県",
      "imageURL": "https://firebasestorage.googleapis.com/v0/b/biketeilen.appspot.com/o/iconImage%2FEufnEmKAUTrnQdOAddaa.jpg?alt=media&token=1345bcc4-bc46-4fc4-9287-b148e79692c7",
      "source": "app"
    },
    {
      "spotId": "EGjqReOd1bFxJYpyZsW0",
      "name": "市原市",
      "lat": 35.35120833333333,
      "lng": 140.1616055,
      "address": "千葉県",
      "imageURL": "https://firebasestorage.googleapis.com:443/v0/b/biketeilen.appspot.com/o/images%2F202308181611073.jpg?alt=media&token=7b07e3f2-a7c0-4245-ba1f-fbe5635b114c",
      "source": "app"
    },
    {
      "spotId": "ejFYUll7cLkG914hUv6Q",
      "name": "市原市",
      "lat": 35.3579,
      "lng": 140.14505,
      "address": "千葉県",
      "imageURL": "https://firebasestorage.googleapis.com/v0/b/biketeilen.appspot.com/o/iconImage%2FWGMuednpfP.jpg?alt=media&token=1acf5ce1-a55e-481b-b255-cdb29a28bacd",
      "source": "app"
    },
    {
      "spotId": "v79gWw5ZA3mp51xYcTYa",
      "name": "市原市",
      "lat": 35.35141,
      "lng": 140.161,
      "address": "千葉県",
      "imageURL": "https://firebasestorage.googleapis.com/v0/b/biketeilen.appspot.com/o/iconImage%2FHxRtAVrFCaTqTdqACVLL.jpg?alt=media&token=fcdd32fd-24e5-4a9b-8ed3-264f51de27d8",
      "source": "app"
    },
    {
      "spotId": "YYZtAW8NQPBoCpHRqAgU",
      "name": "洲埼灯台",
      "lat": 34.975267443838504,
      "lng": 139.75747863775095,
      "address": "千葉県",
      "imageURL": "https://firebasestorage.googleapis.com:443/v0/b/biketeilen.appspot.com/o/images%2F2025112421414479.jpg?alt=media&token=6092b994-2a4f-4dca-8348-ce8542e21941",
      "source": "app"
    },
    {
      "spotId": "eKMdjqAIMLYtfPdLc7Gy",
      "name": "成田市",
      "lat": 35.80205333333333,
      "lng": 140.37573,
      "address": "千葉県",
      "imageURL": "https://firebasestorage.googleapis.com/v0/b/biketeilen.appspot.com/o/images%2F2022032018255153.jpg?alt=media&token=a5eff952-5708-4c7d-9cec-cea68539dec5",
      "source": "app"
    },
    {
      "spotId": "0HjlTGoKBoRpEcp1MOY0",
      "name": "袖ケ浦市",
      "lat": 35.44397167000001,
      "lng": 139.94912832999998,
      "address": "千葉県",
      "imageURL": "https://firebasestorage.googleapis.com/v0/b/biketeilen.appspot.com/o/iconImage%2FgceojQY8p1.jpg?alt=media&token=a00d3632-95e5-4759-a8d0-b4d6cf075cd7",
      "source": "app"
    },
    {
      "spotId": "sZ2ehW7Uyjdvqnhj3DZC",
      "name": "袖ケ浦市",
      "lat": 35.44956667000001,
      "lng": 139.95011332999997,
      "address": "千葉県",
      "imageURL": "https://firebasestorage.googleapis.com/v0/b/biketeilen.appspot.com/o/iconImage%2F5GRf9LJ2te.jpg?alt=media&token=202f7a03-c173-472e-99f9-3f5b6bc8b3ef",
      "source": "app"
    },
    {
      "spotId": "GgYvhvJ1lWndafX4bopO",
      "name": "銚子市",
      "lat": 35.70715333,
      "lng": 140.86704999999998,
      "address": "千葉県",
      "imageURL": "https://firebasestorage.googleapis.com/v0/b/biketeilen.appspot.com/o/iconImage%2FUmkzc9ZIqq.jpg?alt=media&token=5b27daab-46e3-4709-aaf7-6f89deac37ab",
      "source": "app"
    },
    {
      "spotId": "SdvLeJOppSSimp0nEuEy",
      "name": "銚子市",
      "lat": 35.697704,
      "lng": 140.85269,
      "address": "千葉県",
      "imageURL": "https://firebasestorage.googleapis.com/v0/b/biketeilen.appspot.com/o/iconImage%2FIdSGALEqQLzAwKtmmzfu.jpg?alt=media&token=9d82da0d-563f-42f7-823b-523e1ffe6750",
      "source": "app"
    },
    {
      "spotId": "psSejqZW4g1drb9QvwW7",
      "name": "銚子市",
      "lat": 35.69718,
      "lng": 140.84828,
      "address": "千葉県",
      "imageURL": "https://firebasestorage.googleapis.com/v0/b/biketeilen.appspot.com/o/iconImage%2FrsBPlmslbwiUTmJVsLfQ.jpg?alt=media&token=cf2b9c07-59fa-4732-9257-b7390aed238a",
      "source": "app"
    },
    {
      "spotId": "taj1x7cgHbdVyyuPS4r6",
      "name": "銚子市",
      "lat": 35.697174,
      "lng": 140.84833,
      "address": "千葉県",
      "imageURL": "https://firebasestorage.googleapis.com/v0/b/biketeilen.appspot.com/o/iconImage%2FiMWGQKArczLIFsnEoOZc.jpg?alt=media&token=00e95681-301f-4ef7-8648-d6941bf0708d",
      "source": "app"
    },
    {
      "spotId": "H7s3Y8KgheN8JpC75QrA",
      "name": "長崎鼻一ノ島照射灯",
      "lat": 35.69392205684976,
      "lng": 140.8648825251878,
      "address": "千葉県",
      "imageURL": "https://firebasestorage.googleapis.com:443/v0/b/biketeilen.appspot.com/o/images%2F202511242135549.jpg?alt=media&token=fb34ca5f-b717-422f-b490-5fca48fb7444",
      "source": "app"
    },
    {
      "spotId": "or8X7TrSpWuJuKD5Yq34",
      "name": "長生郡睦沢町",
      "lat": 35.353474999999996,
      "lng": 140.30357167000005,
      "address": "千葉県",
      "imageURL": "https://firebasestorage.googleapis.com/v0/b/biketeilen.appspot.com/o/iconImage%2F3D9qeh2ivC.jpg?alt=media&token=0b6bd012-c8bd-4e87-8750-d9b8c5111b79",
      "source": "app"
    },
    {
      "spotId": "HyjHUFOK8rV3kC7dV1tH",
      "name": "道の駅 鴨川オーシャンパーク",
      "lat": 35.06373021754908,
      "lng": 140.0773066656106,
      "address": "千葉県",
      "imageURL": "https://firebasestorage.googleapis.com:443/v0/b/biketeilen.appspot.com/o/images%2F2025112421424287.jpg?alt=media&token=f31dcf17-3859-48ab-8854-ada47c5f89dc",
      "source": "app"
    },
    {
      "spotId": "Ovhf8csxAZOYLoq6b33C",
      "name": "飯岡刑部岬展望館",
      "lat": 35.69346675186948,
      "lng": 140.7399103605568,
      "address": "千葉県",
      "imageURL": "https://firebasestorage.googleapis.com:443/v0/b/biketeilen.appspot.com/o/images%2F202511242136518.jpg?alt=media&token=a5f94849-55ff-4827-b658-b2c0e37cc018",
      "source": "app"
    },
    {
      "spotId": "fzzL5EhNrh4JOkM7oIZX",
      "name": "富浦町原岡",
      "lat": 35.04397943619177,
      "lng": 139.83202208777874,
      "address": "千葉県",
      "imageURL": "https://firebasestorage.googleapis.com:443/v0/b/biketeilen.appspot.com/o/images%2F2025112421410593.jpg?alt=media&token=6cb86e10-186f-4173-a83d-ad514acece75",
      "source": "app"
    },
    {
      "spotId": "ZRoWiUTiVgEnXfc8Kj59",
      "name": "富津公園",
      "lat": 35.31318282246153,
      "lng": 139.7860227899065,
      "address": "千葉県",
      "imageURL": "https://firebasestorage.googleapis.com:443/v0/b/biketeilen.appspot.com/o/images%2F2025112421392474.jpg?alt=media&token=65a17643-bbe5-4733-800e-42b74c53a7b3",
      "source": "app"
    },
    {
      "spotId": "DhD1GcKOqCCZIWtHnUOe",
      "name": "富津市",
      "lat": 35.31289666666667,
      "lng": 139.78601166666667,
      "address": "千葉県",
      "imageURL": "https://firebasestorage.googleapis.com/v0/b/biketeilen.appspot.com/o/iconImage%2F2kKzqDU8eR.jpg?alt=media&token=87f639f9-f663-475c-9374-fa844018777e",
      "source": "app"
    },
    {
      "spotId": "MPTYII9HAtMRU17lwZSX",
      "name": "富津市",
      "lat": 35.31272833,
      "lng": 139.78591999999998,
      "address": "千葉県",
      "imageURL": "https://firebasestorage.googleapis.com/v0/b/biketeilen.appspot.com/o/iconImage%2FCAxgzPLY3j.jpg?alt=media&token=d60f61dd-2842-4a89-b9bc-e2b53bdadfea",
      "source": "app"
    },
    {
      "spotId": "ItlBvxrMHT9UWH19XYu3",
      "name": "木更津市",
      "lat": 35.43271167,
      "lng": 139.90866999999997,
      "address": "千葉県",
      "imageURL": "https://firebasestorage.googleapis.com/v0/b/biketeilen.appspot.com/o/iconImage%2FmQ1ZCSo3QD.jpg?alt=media&token=48b3ba44-c305-4571-80c7-1cbc646a0579",
      "source": "app"
    },
    {
      "spotId": "O88H6KjSl1hTElECRona",
      "name": "竜島海岸・勝山海水浴場",
      "lat": 35.11820613409869,
      "lng": 139.82864242060094,
      "address": "千葉県",
      "imageURL": "https://firebasestorage.googleapis.com:443/v0/b/biketeilen.appspot.com/o/images%2F2025112421401290.jpg?alt=media&token=f7d1832c-d8e8-4c1d-91bd-abd9c789b40b",
      "source": "app"
    },
    {
      "spotId": "JqSvpJgH1Za6CJ4fjZJc",
      "name": "老川露頭",
      "lat": 35.2419668203548,
      "lng": 140.17202502129615,
      "address": "千葉県",
      "imageURL": "https://firebasestorage.googleapis.com:443/v0/b/biketeilen.appspot.com/o/images%2F202511242144251.jpg?alt=media&token=c8f82903-d031-4ebc-81f3-c8357a1af221",
      "source": "app"
    }
  ]
}
