{
  "prefecture": "茨城県",
  "romaji": "ibaraki",
  "count": 42,
  "total": 42,
  "spots": [
    {
      "spotId": "oAiGDTHT2gWnd57RrEEL",
      "name": "つつじヶ丘展望台",
      "lat": 36.69547,
      "lng": 140.418975,
      "address": "茨城県",
      "imageURL": "https://firebasestorage.googleapis.com:443/v0/b/biketeilen.appspot.com/o/images%2F202603300%E6%99%82204490.jpg?alt=media&token=907621b4-5e74-47b6-ae2e-9c69f08698d7"
    },
    {
      "spotId": "40ZIy1of7Qq2XTHgkcxi",
      "name": "稲敷郡美浦村",
      "lat": 36.00343611666667,
      "lng": 140.37652833333334,
      "address": "茨城県",
      "imageURL": "https://firebasestorage.googleapis.com:443/v0/b/biketeilen.appspot.com/o/images%2F2023021514122068.jpg?alt=media&token=0b6455b1-ab63-430c-bd8b-928d11b5c3c8"
    },
    {
      "spotId": "SOR2ijD9LMk6csLpPAlI",
      "name": "稲敷郡美浦村",
      "lat": 36.00489722,
      "lng": 140.37583833000002,
      "address": "茨城県",
      "imageURL": "https://firebasestorage.googleapis.com/v0/b/biketeilen.appspot.com/o/iconImage%2FCakLhj4nHP.jpg?alt=media&token=99453d40-7c2e-4582-acd4-2c3e22c34db5"
    },
    {
      "spotId": "0VQIJ4o3ACyP9ipbjD5k",
      "name": "御前山ダム",
      "lat": 36.558746,
      "lng": 140.28735,
      "address": "茨城県",
      "imageURL": "https://firebasestorage.googleapis.com/v0/b/biketeilen.appspot.com/o/iconImage%2FArSEBaabTHTIBqiyTegK.jpg?alt=media&token=bccb98a1-140b-4e27-98bd-2ff40d13387a"
    },
    {
      "spotId": "ubLbOsDkqp5l5as7lwI0",
      "name": "御前山ダム公園",
      "lat": 36.55825,
      "lng": 140.28382833333333,
      "address": "茨城県",
      "imageURL": "https://firebasestorage.googleapis.com:443/v0/b/biketeilen.appspot.com/o/images%2F202603300%E6%99%82175925.jpg?alt=media&token=03a8f40b-c831-44de-ad4e-628c2f0c0708"
    },
    {
      "spotId": "aH5E72oPmWA8tAP58aTV",
      "name": "御前山ダム堤体眺望エリア",
      "lat": 36.549191666666665,
      "lng": 140.27911333333333,
      "address": "茨城県",
      "imageURL": "https://firebasestorage.googleapis.com:443/v0/b/biketeilen.appspot.com/o/images%2F202603300%E6%99%82191683.jpg?alt=media&token=60f019f8-d5f4-4237-a27f-61a1e434e441"
    },
    {
      "spotId": "in64SV7cdR68VulygNN5",
      "name": "行方市",
      "lat": 36.15431117,
      "lng": 140.36599667000002,
      "address": "茨城県",
      "imageURL": "https://firebasestorage.googleapis.com/v0/b/biketeilen.appspot.com/o/iconImage%2FlT334tzOqq.jpg?alt=media&token=f6a8e22d-44ef-417b-a940-f494fe9fe24f"
    },
    {
      "spotId": "labhn8YgwwDwi6AU9r9h",
      "name": "高萩市",
      "lat": 36.72502,
      "lng": 140.64663666666667,
      "address": "茨城県",
      "imageURL": "https://firebasestorage.googleapis.com/v0/b/biketeilen.appspot.com/o/iconImage%2FCEmB9ETn11.jpg?alt=media&token=2e04cf56-db37-4292-8aea-4f9d8939f1d6"
    },
    {
      "spotId": "MsmibMDy3VuHVRzj5ic9",
      "name": "桜川市",
      "lat": 36.38332833333333,
      "lng": 140.09663333333333,
      "address": "茨城県",
      "imageURL": "https://firebasestorage.googleapis.com/v0/b/biketeilen.appspot.com/o/images%2F2022032018231939.jpg?alt=media&token=413c7a2c-209a-43d9-9ba1-6064df1ea0db"
    },
    {
      "spotId": "qKkRoH5MKcVmbqjPyj8V",
      "name": "鹿島灘海浜公園",
      "lat": 36.151241666666664,
      "lng": 140.57898,
      "address": "茨城県",
      "imageURL": "https://firebasestorage.googleapis.com:443/v0/b/biketeilen.appspot.com/o/images%2F2026030114413988.jpg?alt=media&token=7505bec6-5876-4da3-82d8-465193e06bd2"
    },
    {
      "spotId": "M5PK1AEhG1cKaBSsOfk1",
      "name": "鹿嶋市",
      "lat": 35.94220333,
      "lng": 140.68974167000002,
      "address": "茨城県",
      "imageURL": "https://firebasestorage.googleapis.com/v0/b/biketeilen.appspot.com/o/iconImage%2FDRCRrK0Q1Z.jpg?alt=media&token=725d0967-22f0-4692-a7a5-f2b5d478dc60"
    },
    {
      "spotId": "03PkqJMzdkEmo9xP036B",
      "name": "神栖市",
      "lat": 35.835253333333334,
      "lng": 140.76228333333333,
      "address": "茨城県",
      "imageURL": "https://firebasestorage.googleapis.com/v0/b/biketeilen.appspot.com/o/images%2F2022032720190768.jpg?alt=media&token=9158a899-b383-4d81-9aab-6e49704fa41d"
    },
    {
      "spotId": "CGBXjdqxESx4gZD4ECge",
      "name": "神栖市",
      "lat": 35.89541667,
      "lng": 140.693055,
      "address": "茨城県",
      "imageURL": "https://firebasestorage.googleapis.com/v0/b/biketeilen.appspot.com/o/iconImage%2FDnp8xFkNiT.jpg?alt=media&token=fc97bb8f-d070-4254-a454-3653b97421f5"
    },
    {
      "spotId": "EKYJ4Ln3HARoIShEyzCN",
      "name": "神栖市",
      "lat": 35.89095,
      "lng": 140.72938666666667,
      "address": "茨城県",
      "imageURL": "https://firebasestorage.googleapis.com:443/v0/b/biketeilen.appspot.com/o/images%2F202305187%E6%99%8202777.jpg?alt=media&token=220de5d9-02c2-46a6-9640-aff204255e39"
    },
    {
      "spotId": "Eev3Sn84tnhvN4HdZf4u",
      "name": "神栖市",
      "lat": 35.884946666666664,
      "lng": 140.62213,
      "address": "茨城県",
      "imageURL": "https://firebasestorage.googleapis.com:443/v0/b/biketeilen.appspot.com/o/images%2F2022122412303966.jpg?alt=media&token=73f97c1c-f7f7-400d-b89f-6ac63e9aa716"
    },
    {
      "spotId": "SprxxOUCZINLMOc6Cq3H",
      "name": "神栖市",
      "lat": 35.92217,
      "lng": 140.61387833333333,
      "address": "茨城県",
      "imageURL": "https://firebasestorage.googleapis.com/v0/b/biketeilen.appspot.com/o/images%2F2022032720162258.jpg?alt=media&token=245a456b-793a-4b2a-a279-3874268abbb8"
    },
    {
      "spotId": "T8mWbLHMMACJ1zsZzC0B",
      "name": "神栖市",
      "lat": 35.788855,
      "lng": 140.80049166666666,
      "address": "茨城県",
      "imageURL": "https://firebasestorage.googleapis.com/v0/b/biketeilen.appspot.com/o/images%2F202203272020159.jpg?alt=media&token=d6c8dd41-a099-4be3-b7d6-de4935ebdf2a"
    },
    {
      "spotId": "YVsUQcS0ciEIGsUZT2BG",
      "name": "神栖市",
      "lat": 35.89185333333333,
      "lng": 140.728745,
      "address": "茨城県",
      "imageURL": "https://firebasestorage.googleapis.com/v0/b/biketeilen.appspot.com/o/images%2F2022032720173297.jpg?alt=media&token=b4dae1cb-2aeb-4c3c-95d7-247bc5918a09"
    },
    {
      "spotId": "nxKkAksyOfRLQbEXpSoW",
      "name": "神栖市",
      "lat": 35.885461666666664,
      "lng": 140.62416166666668,
      "address": "茨城県",
      "imageURL": "https://firebasestorage.googleapis.com:443/v0/b/biketeilen.appspot.com/o/images%2F2022122412285987.jpg?alt=media&token=2196b0b1-388d-4238-ba84-5c98fb01ddee"
    },
    {
      "spotId": "H0TJk2sn5CPuqFzQzR0F",
      "name": "水戸市",
      "lat": 36.436296666666664,
      "lng": 140.44383,
      "address": "茨城県",
      "imageURL": "https://firebasestorage.googleapis.com:443/v0/b/biketeilen.appspot.com/o/images%2F2022122412252870.jpg?alt=media&token=240a6dfc-218f-40f1-b891-c58594492c75"
    },
    {
      "spotId": "fA0KJ1LSdIKPrl2QA6Us",
      "name": "水戸市",
      "lat": 36.435671666666664,
      "lng": 140.44381666666666,
      "address": "茨城県",
      "imageURL": "https://firebasestorage.googleapis.com:443/v0/b/biketeilen.appspot.com/o/images%2F2022122412274326.jpg?alt=media&token=a70ada22-7507-49e9-91d5-2c41c5ded743"
    },
    {
      "spotId": "4wSazjWN4SPM8GNZDohs",
      "name": "成田町",
      "lat": 36.275016666666666,
      "lng": 140.53381333333334,
      "address": "茨城県",
      "imageURL": "https://firebasestorage.googleapis.com:443/v0/b/biketeilen.appspot.com/o/images%2F2026053120025374.jpg?alt=media&token=6d7f8dba-115e-4859-99b0-4f60fc2d76f0"
    },
    {
      "spotId": "twVmJYXMZrxY7jNVKr1S",
      "name": "大洗磯前神社",
      "lat": 36.31521166666667,
      "lng": 140.58848666666665,
      "address": "茨城県",
      "imageURL": "https://firebasestorage.googleapis.com:443/v0/b/biketeilen.appspot.com/o/images%2F202605312005153.jpg?alt=media&token=0a8e1d56-78bf-40c6-9d05-6f68a1d464cb"
    },
    {
      "spotId": "I5vveCwwEu0eTibR8495",
      "name": "大竹海岸 展望台",
      "lat": 36.15462216666667,
      "lng": 140.58010833333333,
      "address": "茨城県",
      "imageURL": "https://firebasestorage.googleapis.com:443/v0/b/biketeilen.appspot.com/o/images%2F2026030114423123.jpg?alt=media&token=3b2abbbf-c977-469d-a4bc-2820608d63e4"
    },
    {
      "spotId": "Yv4o6dPsN0fBpo8ZD9d5",
      "name": "大竹海岸 展望台",
      "lat": 36.15475,
      "lng": 140.58055,
      "address": "茨城県",
      "imageURL": "https://firebasestorage.googleapis.com:443/v0/b/biketeilen.appspot.com/o/images%2F202603011443139.jpg?alt=media&token=4da695e4-6610-4ed8-a25a-33e49e9c4b25"
    },
    {
      "spotId": "XGLAY621dYDRPJvyYhXO",
      "name": "土浦市",
      "lat": 36.086222166666666,
      "lng": 140.23318666666665,
      "address": "茨城県",
      "imageURL": "https://firebasestorage.googleapis.com/v0/b/biketeilen.appspot.com/o/iconImage%2FrlTNP2OGji.jpg?alt=media&token=08313b5d-56c2-43d3-a8be-dc19f817ff34"
    },
    {
      "spotId": "o80GF90HvnT8kf61Un0z",
      "name": "土浦市",
      "lat": 36.070288833333336,
      "lng": 140.24195833333334,
      "address": "茨城県",
      "imageURL": "https://firebasestorage.googleapis.com/v0/b/biketeilen.appspot.com/o/iconImage%2FEF8HvZlFUx.jpg?alt=media&token=57ada435-f24e-473b-80b4-684a2ba47e58"
    },
    {
      "spotId": "swslwSdljXZ2abJriIHy",
      "name": "土浦市",
      "lat": 36.164361166666666,
      "lng": 140.15972783333333,
      "address": "茨城県",
      "imageURL": "https://firebasestorage.googleapis.com/v0/b/biketeilen.appspot.com/o/iconImage%2F2R9cfWlh5f.jpg?alt=media&token=443114f9-a69b-43ab-afe7-b6b33014b971"
    },
    {
      "spotId": "YdniUOgX4OzUbmFoJOEa",
      "name": "東茨城郡大洗町",
      "lat": 36.315596666666664,
      "lng": 140.58783,
      "address": "茨城県",
      "imageURL": "https://firebasestorage.googleapis.com/v0/b/biketeilen.appspot.com/o/iconImage%2FJE3g2huIGL.jpg?alt=media&token=85d19d90-2141-4d01-8211-e2d5af567149"
    },
    {
      "spotId": "pRQPMp7b9oOVaCgaLD4H",
      "name": "東茨城郡大洗町",
      "lat": 36.31521166666667,
      "lng": 140.589005,
      "address": "茨城県",
      "imageURL": "https://firebasestorage.googleapis.com/v0/b/biketeilen.appspot.com/o/iconImage%2F8Q6VcrZo7Y.jpg?alt=media&token=cfc1b9d6-3be7-4447-b148-e4b6b452ce47"
    },
    {
      "spotId": "uBHsBfnZgcQLDkjTCLnC",
      "name": "東茨城郡大洗町",
      "lat": 36.31812167000001,
      "lng": 140.58918832999998,
      "address": "茨城県",
      "imageURL": "https://firebasestorage.googleapis.com/v0/b/biketeilen.appspot.com/o/iconImage%2FuEyJjkFIyp.jpg?alt=media&token=94a4280d-ec08-4874-a35a-b579dda287ff"
    },
    {
      "spotId": "z1kvISR8DzHWSk9phmwH",
      "name": "東茨城郡大洗町",
      "lat": 36.32478332999999,
      "lng": 140.59278833,
      "address": "茨城県",
      "imageURL": "https://firebasestorage.googleapis.com/v0/b/biketeilen.appspot.com/o/iconImage%2FDqydIPRzYO.jpg?alt=media&token=0f1bd599-e9b8-4ebb-98bf-f45a5e52c2f4"
    },
    {
      "spotId": "VBdolIfXoinlf93qGF4V",
      "name": "道の駅 ごか",
      "lat": 36.095088833333335,
      "lng": 139.75804166666666,
      "address": "茨城県",
      "imageURL": "https://firebasestorage.googleapis.com:443/v0/b/biketeilen.appspot.com/o/images%2F2026030114385535.jpg?alt=media&token=c2321d16-b23f-421e-922b-be051af2e585"
    },
    {
      "spotId": "2ZjNiuS0FqKgrcRKrPNG",
      "name": "日立市",
      "lat": 36.595895,
      "lng": 140.66908333333333,
      "address": "茨城県",
      "imageURL": "https://firebasestorage.googleapis.com/v0/b/biketeilen.appspot.com/o/iconImage%2FCqvehJCD6L.jpg?alt=media&token=ed7316e3-80da-45cc-aa74-1a3f4665da5f"
    },
    {
      "spotId": "TuGLKdQaSdn0uI4ytUSX",
      "name": "日立市",
      "lat": 36.596268,
      "lng": 140.66953,
      "address": "茨城県",
      "imageURL": "https://firebasestorage.googleapis.com/v0/b/biketeilen.appspot.com/o/iconImage%2FTJwIkTrUTXIqMtCKNPtf.jpg?alt=media&token=83a41f1c-73fb-43b1-a97b-034e2a76928f"
    },
    {
      "spotId": "XZD2QqVZKgxfSJhTEgkI",
      "name": "日立市",
      "lat": 36.508703329999996,
      "lng": 140.63165332999998,
      "address": "茨城県",
      "imageURL": "https://firebasestorage.googleapis.com/v0/b/biketeilen.appspot.com/o/images%2F2021091121534612.jpg?alt=media&token=30acad34-877d-4b3a-8adb-0b7d41975cbd"
    },
    {
      "spotId": "hB92VaWAbYm8IniUXNwF",
      "name": "日立市",
      "lat": 36.518745,
      "lng": 140.62484666666666,
      "address": "茨城県",
      "imageURL": "https://firebasestorage.googleapis.com:443/v0/b/biketeilen.appspot.com/o/images%2F202210300%E6%99%82284820.jpg?alt=media&token=7149da69-0819-4cc0-9c48-0545e4db9513"
    },
    {
      "spotId": "s9WrkTemAWveDXOyHXoX",
      "name": "日立市",
      "lat": 36.674294,
      "lng": 140.66554,
      "address": "茨城県",
      "imageURL": "https://firebasestorage.googleapis.com/v0/b/biketeilen.appspot.com/o/iconImage%2FFhyyfDGPQtBtKovzdhSB.jpg?alt=media&token=62ff6520-c68b-467d-a806-f26dda00dfff"
    },
    {
      "spotId": "MVCrCebMYTLBZFCizKlb",
      "name": "北茨城市",
      "lat": 36.84662999999999,
      "lng": 140.79737832999996,
      "address": "茨城県",
      "imageURL": "https://firebasestorage.googleapis.com/v0/b/biketeilen.appspot.com/o/images%2F2021100318183623.jpg?alt=media&token=e46a3950-bfce-48f1-bc69-eb97dd2c0ae7"
    },
    {
      "spotId": "NOKssQlN6o6MnJZUxvwE",
      "name": "北茨城市",
      "lat": 36.83122833,
      "lng": 140.80377167,
      "address": "茨城県",
      "imageURL": "https://firebasestorage.googleapis.com/v0/b/biketeilen.appspot.com/o/images%2F202110031815084.jpg?alt=media&token=33448c66-64cc-4be9-9e92-27a67d2e8fa2"
    },
    {
      "spotId": "RbaxLJRYMsa2L5BgjPib",
      "name": "北茨城市",
      "lat": 36.83155333,
      "lng": 140.80448832999997,
      "address": "茨城県",
      "imageURL": "https://firebasestorage.googleapis.com/v0/b/biketeilen.appspot.com/o/images%2F2021100318141768.jpg?alt=media&token=1c940c7c-60ea-40ce-8c15-dba1f86d72e5"
    },
    {
      "spotId": "VRtUhpwN9Z8fM7bnJwz1",
      "name": "北茨城市",
      "lat": 36.79430332999999,
      "lng": 140.75691167,
      "address": "茨城県",
      "imageURL": "https://firebasestorage.googleapis.com/v0/b/biketeilen.appspot.com/o/images%2F2021100318061190.jpg?alt=media&token=b54f8af6-f281-4882-9024-2aa9a1d7f7ad"
    }
  ]
}
