{
  "prefecture": "宮城県",
  "romaji": "miyagi",
  "count": 7,
  "total": 7,
  "spots": [
    {
      "spotId": "RKXon3uaS3yrxx05Vklh",
      "name": "刈田郡蔵王町",
      "lat": 38.12366383333333,
      "lng": 140.45294166666667,
      "address": "宮城県",
      "imageURL": "https://firebasestorage.googleapis.com/v0/b/biketeilen.appspot.com/o/images%2F2022050817594486.jpg?alt=media&token=fa1c3a64-b6b3-470e-a784-b42a1d0932fd"
    },
    {
      "spotId": "OVn10jVl0csJQ7B2rr31",
      "name": "気仙沼市",
      "lat": 38.889941666666665,
      "lng": 141.66703833333332,
      "address": "宮城県",
      "imageURL": "https://firebasestorage.googleapis.com/v0/b/biketeilen.appspot.com/o/images%2F202111246%E6%99%82363556.jpg?alt=media&token=74535e47-4ddc-4451-b7a4-ebea9fe6380e"
    },
    {
      "spotId": "dDoTq6eKbklv2IXDdoeA",
      "name": "気仙沼市",
      "lat": 38.827625,
      "lng": 141.602355,
      "address": "宮城県",
      "imageURL": "https://firebasestorage.googleapis.com/v0/b/biketeilen.appspot.com/o/images%2F202111246%E6%99%82380417.jpg?alt=media&token=1045737b-167d-44cb-a9ae-24709b1968b1"
    },
    {
      "spotId": "lMQngiVH6UIIcqNymU2g",
      "name": "気仙沼市",
      "lat": 38.813705,
      "lng": 141.56887833333334,
      "address": "宮城県",
      "imageURL": "https://firebasestorage.googleapis.com/v0/b/biketeilen.appspot.com/o/images%2F202205045%E6%99%82553613.jpg?alt=media&token=9dd162ba-2062-4c21-bce5-36c78c6adc6a"
    },
    {
      "spotId": "zlnktZar8SQn6WHDKFvn",
      "name": "気仙沼市",
      "lat": 38.87715333333333,
      "lng": 141.60553,
      "address": "宮城県",
      "imageURL": "https://firebasestorage.googleapis.com/v0/b/biketeilen.appspot.com/o/images%2F202111246%E6%99%8236571.jpg?alt=media&token=d84cf488-564f-4bee-a527-db382b683bda"
    },
    {
      "spotId": "4jGWse1VUz2Amf9ETcV8",
      "name": "栗原市",
      "lat": 38.90454666666667,
      "lng": 140.73178,
      "address": "宮城県",
      "imageURL": "https://firebasestorage.googleapis.com/v0/b/biketeilen.appspot.com/o/images%2F2022050719351623.jpg?alt=media&token=32d2e6ee-38eb-4b04-a9ea-b424ef85a4a9"
    },
    {
      "spotId": "2Eoo3LDv9WmTdl8U7HYb",
      "name": "龍舞崎",
      "lat": 38.83060833333333,
      "lng": 141.62462,
      "address": "宮城県",
      "imageURL": "https://firebasestorage.googleapis.com/v0/b/biketeilen.appspot.com/o/images%2F202111246%E6%99%82374891.jpg?alt=media&token=73bad458-2bd2-42a3-a926-6c98c2cab484"
    }
  ]
}
